~VERSION INFORMATION
VERS.           2.0   :CWLS Log ASCII Standard - VERSION 2.0
WRAP.           NO    :One Line per depth step
PROD.  Schlumberger   :LAS Producer
PROG.  DLIS to ASCII 13C0-300                          :LAS Program name and version
CREA.        2011/08/08 09:00                          :LAS Creation date {YYYY/MM/DD hh:mm}
SOURCE.     DLL_SONIC_MSFL_CNL_033PUP.DLIS             :DLIS File Name
FILE-ID.     DLL_SONIC_MSFL_CNL_033PUP                 :File Identification Number
#--------------------------------------------------
~WELL INFORMATION
#MNEM.UNIT      DATA             DESCRIPTION
#---- ------ --------------   -----------------------------
STRT .F         8621.5       :START DEPTH     
STOP .F         6875.5       :STOP DEPTH     
STEP .F           -0.5       :STEP     
NULL .          -999.25      :NULL VALUE
COMP .        PT Pertamina EP Region Jawa              :COMPANY
WELL .        MLD-05/ MLD-B1                           :WELL
FLD  .        Melandong                                :FIELD
LOC  .                                                 :LOCATION
CNTY .        MSH-2000                                 :COUNTY
STAT .        West Java                                :STATE
CTRY .        Indonesia                                :COUNTRY
API  .                                                 :API NUMBER
UWI  .                                                 :UNIQUE WELL ID
DATE .        07-Aug-2011                              :LOG DATE {DD-MMM-YYYY}
SRVC .        Schlumberger                             :SERVICE COMPANY
LATI .DEG                                              :LATITUDE
LONG .DEG                                              :LONGITUDE
GDAT .                                                 :GeoDetic Datum
#-----------------------------------------------------------------------------
~PARAMETER INFORMATION
#MNEM.UNIT    VALUE                      DESCRIPTION
#---- -----   --------------------       ------------------------
RUN  .          1                        :RUN NUMBER
PDAT .        MSL                        :Permanent Datum
EPD  .M           0.000000               :Elevation of Permanent Datum above Mean Sea Level
EPD  .M           0.000000               :Elevation of tool zero above Mean Sea Level
LMF  .          DF                       :Logging Measured From (Name of Logging Elevation Reference)
APD  .M          10.040000               :Elevation of Depth Reference (LMF) above Permanent Datum
#-----------------------------------------------------------------------------
~CURVE INFORMATION
#MNEM.UNIT   API CODE                                  DESCRIPTION
#---- -----  --------                                  -----------------------
DEPT .F                                                :DEPTH (BOREHOLE) {F10.1}
LLD  .OHMM                                             :DEEP RESISTIVITY {F13.4}
LLS  .OHMM                                             :SHALLOW RESISTIVITY {F13.4}
DT   .US/F                                             :Delta-T {F13.4}
SP   .MV                                               :SP Shifted {F13.4}
MSFL .OHMM                                             :MSFL RESISTIVITY {F13.4}
GR   .GAPI                                             :Gamma Ray {F13.4}
NPHI .V/V                                              :Thermal Neutron Porosity (Ratio Method) {F13.4}
DRHO .G/C3                                             :Bulk Density Correction {F13.4}
PEF  .                                                 :Photoelectric Factor {F13.4}
RHOB .G/C3                                             :Bulk Density {F13.4}
CALI .IN                                               :Caliper {F13.4}
#-----------------------------------------------------------------------------
# 
#     DEPT        LLD          LLS          DT           SP           MSFL         GR           NPHI         DRHO         PEF          RHOB         CALI
#
~A  
# ...
    7373.5       2.9517       2.6924      88.6000    -529.8750       3.5343      85.3546       0.2136       0.0235       3.4440       2.5072      13.2407
    7373.0       2.9790       2.6877      88.1000    -529.5625       3.6221      86.2896       0.2160       0.0223       3.3692       2.5015      13.3026
    7372.5       2.9752       2.6953      87.1000    -529.3125       3.5805      85.7224       0.1977       0.0183       3.3889       2.4956      13.3594
    7372.0       2.8154       2.6805      87.5000    -529.0625       3.3014      87.0581       0.1907       0.0280       3.4175       2.5035      13.3759
    7371.5       2.9721       2.7332      87.3000    -528.7500       3.2497      86.2567       0.1931       0.0147       3.4788       2.4889      13.3644
    7371.0       3.1578       2.8109      86.5000    -528.5625       3.2169      86.1561       0.2083       0.0118       3.5512       2.4849      13.2951
    7370.5       3.1502       2.9280      85.9000    -528.3125       3.3610      82.2954       0.2141       0.0110       3.6291       2.4859      13.2135
    7370.0       3.3011       2.9572      85.2000    -527.9375       3.5066      84.4326       0.2071       0.0083       3.7207       2.4847      13.1071
    7369.5       3.3644       2.9617      85.4000    -527.7500       3.2805      81.6276       0.1904       0.0024       3.8971       2.4870      13.0453
    7369.0       3.3484       3.0496      86.5000    -527.5625       3.2792      84.1668       0.1936       0.0068       3.8267       2.4961      13.0651
    7368.5       3.3425       3.0745      88.1000    -527.3125       3.3835      82.6975       0.1905       0.0117       3.9516       2.4914      13.1591
    7368.0       3.4388       2.9915      88.1000    -527.0000       3.6185      83.1854       0.1962       0.0138       3.5527       2.4775      13.2657
    7367.5       3.3866       2.9600      87.3000    -526.8125       4.3205      83.9873       0.1853       0.0137       3.4154       2.4667      13.2976
    7367.0       3.2063       2.8610      86.8000    -526.3750       2.9663      88.5289       0.1882       0.0182       3.2198       2.4852      13.3768
    7366.5       3.1931       2.7305      87.3000    -526.1250       2.7467      83.3770       0.1847       0.0246       3.1564       2.5068      13.4114
    7366.0       3.1812       2.7573      88.5000    -525.9375       2.7638      81.6258       0.1947       0.0166       3.1651       2.5026      13.4130
    7365.5       3.1453       2.7754      89.4000    -525.7500       3.0357      81.3635       0.2081       0.0142       3.2533       2.4960      13.4114
    7365.0       2.9909       2.7265      89.3000    -525.4375       3.9076      87.2152       0.2228       0.0163       3.2168       2.4832      13.3965
    7364.5       2.8691       2.6475      88.5000    -524.4375       2.9742      92.6751       0.2267       0.0184       3.0900       2.4759      13.2670
    7364.0       2.8383       2.5252      88.4000    -525.3125       2.7776      87.4470       0.2133       0.0206       3.0555       2.4699      13.1541
    7363.5       2.8701       2.4873      87.1000    -524.8125       2.5342      88.1146       0.2035       0.0323       3.4880       2.5033      13.1196
    7363.0       2.9618       2.5002      85.6000    -525.0000       2.5842      81.4392       0.1928       0.0442       3.9313       2.5349      13.1294
    7362.5       2.9830       2.5479      85.3000    -525.0625       2.4753      81.8398       0.2035       0.0504       3.9658       2.5558      13.1718
    7362.0       3.0167       2.6121      85.8000    -523.6250       2.9716      80.7717       0.2024       0.0461       3.6660       2.5425      13.2335
    7361.5       3.0598       2.7637      86.6000    -523.6875       3.1862      86.6460       0.2052       0.0367       3.6002       2.5264      13.3570
    7361.0       3.1131       2.8675      88.6000    -523.7500       2.8908      91.8694       0.1966       0.0337       3.6425       2.5149      13.4018
    7360.5       3.2675       2.8426      89.1000    -523.3750       3.8657      91.8263       0.2038       0.0268       3.5622       2.4942      13.4040
    7360.0       3.1212       2.7405      88.7000    -523.2500       3.3442      90.0907       0.2215       0.0284       3.4860       2.4860      13.3792
    7359.5       3.0923       2.5690      87.8000    -523.0000       2.5759      86.8698       0.2157       0.0320       3.3792       2.4853      13.3448
    7359.0       2.8767       2.4482      85.8000    -522.8125       2.5280      86.3790       0.2135       0.0396       3.2582       2.4914      13.2036
    7358.5       2.9633       2.4899      84.9000    -522.5625       2.4584      83.3221       0.1946       0.0381       3.2512       2.4870      13.0775
    7358.0       3.2227       2.7435      85.7000    -522.2500       2.3400      77.5484       0.1987       0.0288       3.3747       2.4795      13.0552
    7357.5       3.5011       2.9895      85.9000    -522.0625       2.6217      77.1343       0.1952       0.0171       3.5442       2.4665      13.2087
    7357.0       3.6644       3.1575      86.3000    -522.0000       3.7967      78.3221       0.2073       0.0134       3.4677       2.4672      13.3619
    7356.5       3.6989       3.2358      88.2000    -521.6875       3.4887      82.0792       0.2217       0.0073       3.3855       2.4661      13.4104
    7356.0       3.7454       3.1292      88.8000    -521.5000       3.0393      83.6804       0.2359       0.0069       3.5622       2.4779      13.5548
    7355.5       3.7885       3.1400      89.4000    -521.1250       2.6695      81.1438       0.2318       0.0066       3.6667       2.4848      13.9427
    7355.0       3.7115       3.0702      90.2000    -521.0000       2.8599      82.0779       0.2333       0.0063       3.7954       2.4618      14.1467
    7354.5       3.4234       2.9120      89.6000    -520.5625       3.7552      77.8201       0.2371       0.0027       3.4852       2.4234      14.3266
    7354.0       3.0028       2.6534      90.3000    -520.0625       2.3627      77.4195       0.2427       0.0080       3.5775       2.4079      14.4523
    7353.5       2.6346       2.2483      89.8000    -519.7500       1.9464      76.6189       0.2382       0.0131       3.6396       2.4128      14.4222
    7353.0       2.5622       2.1206      90.0000    -519.5625       1.5701      79.9566       0.2288       0.0281       3.7203       2.4311      14.3167
    7352.5       2.5038       2.1563      91.3000    -519.1250       1.7201      78.7550       0.2259       0.0331       3.6595       2.4319      14.0322
    7352.0       2.4307       2.1697      91.7000    -519.2500       1.8325      74.7759       0.2280       0.0411       3.4597       2.4328      14.0122
    7351.5       2.5393       2.1300      91.0000    -519.1250       1.7605      76.9421       0.2334       0.0482       3.3565       2.4386      14.0044
    7351.0       2.5506       2.1068      91.9000    -519.1250       2.2294      77.8894       0.2411       0.0501       3.2524       2.4323      14.0050
    7350.5       2.4175       2.0958      87.5000    -518.0625       1.6628      83.9003       0.2469       0.0501       3.2795       2.4350      14.0169
    7350.0       2.3007       2.0372      82.0000    -517.4375       1.6633      80.5459       0.2399       0.0553       3.2431       2.4542      14.0452
    7349.5       2.6170       2.1736      81.1000    -518.0000       1.8875      83.3510       0.2124       0.0579       3.4217       2.5164      14.1138
    7349.0       2.9829       2.4696      80.0000    -517.9375       1.4692      79.0156       0.1783       0.0465       3.6298       2.5605      14.1394
    7348.5       3.4573       2.8970      77.2000    -517.6250       1.8323      76.3441       0.1573       0.0464       3.9525       2.6039      14.1435
    7348.0       4.8352       3.7946      83.6000    -517.4375       3.3520      72.8836       0.1660       0.0639       4.1397       2.5967      14.1411
