~VERSION INFORMATION
VERS.           2.0   :CWLS Log ASCII Standard - VERSION 2.0
WRAP.           NO    :One Line per depth step
PROD.  Schlumberger   :LAS Producer
PROG.  DLIS to ASCII 13C0-300                          :LAS Program name and version
CREA.        2011/08/08 09:00                          :LAS Creation date {YYYY/MM/DD hh:mm}
SOURCE.     DLL_SONIC_MSFL_CNL_033PUP.DLIS             :DLIS File Name
FILE-ID.     DLL_SONIC_MSFL_CNL_033PUP                 :File Identification Number
#--------------------------------------------------
~WELL INFORMATION
#MNEM.UNIT      DATA             DESCRIPTION
#---- ------ --------------   -----------------------------
STRT .F         8621.5       :START DEPTH     
STOP .F         6875.5       :STOP DEPTH     
STEP .F           -0.5       :STEP     
NULL .          -999.25      :NULL VALUE
COMP .        PT Pertamina EP Region Jawa              :COMPANY
WELL .        MLD-05/ MLD-B1                           :WELL
FLD  .        Melandong                                :FIELD
LOC  .                                                 :LOCATION
CNTY .        MSH-2000                                 :COUNTY
STAT .        West Java                                :STATE
CTRY .        Indonesia                                :COUNTRY
API  .                                                 :API NUMBER
UWI  .                                                 :UNIQUE WELL ID
DATE .        07-Aug-2011                              :LOG DATE {DD-MMM-YYYY}
SRVC .        Schlumberger                             :SERVICE COMPANY
LATI .DEG                                              :LATITUDE
LONG .DEG                                              :LONGITUDE
GDAT .                                                 :GeoDetic Datum
#-----------------------------------------------------------------------------
~PARAMETER INFORMATION
#MNEM.UNIT    VALUE                      DESCRIPTION
#---- -----   --------------------       ------------------------
RUN  .          1                        :RUN NUMBER
PDAT .        MSL                        :Permanent Datum
EPD  .M           0.000000               :Elevation of Permanent Datum above Mean Sea Level
EPD  .M           0.000000               :Elevation of tool zero above Mean Sea Level
LMF  .          DF                       :Logging Measured From (Name of Logging Elevation Reference)
APD  .M          10.040000               :Elevation of Depth Reference (LMF) above Permanent Datum
#-----------------------------------------------------------------------------
~CURVE INFORMATION
#MNEM.UNIT   API CODE                                  DESCRIPTION
#---- -----  --------                                  -----------------------
DEPT .F                                                :DEPTH (BOREHOLE) {F10.1}
LLD  .OHMM                                             :DEEP RESISTIVITY {F13.4}
LLS  .OHMM                                             :SHALLOW RESISTIVITY {F13.4}
DT   .US/F                                             :Delta-T {F13.4}
SP   .MV                                               :SP Shifted {F13.4}
MSFL .OHMM                                             :MSFL RESISTIVITY {F13.4}
GR   .GAPI                                             :Gamma Ray {F13.4}
NPHI .V/V                                              :Thermal Neutron Porosity (Ratio Method) {F13.4}
DRHO .G/C3                                             :Bulk Density Correction {F13.4}
PEF  .                                                 :Photoelectric Factor {F13.4}
RHOB .G/C3                                             :Bulk Density {F13.4}
CALI .IN                                               :Caliper {F13.4}
#-----------------------------------------------------------------------------
# 
#     DEPT        LLD          LLS          DT           SP           MSFL         GR           NPHI         DRHO         PEF          RHOB         CALI
#
~A  
# ...
    7945.5      33.4584      27.0985      57.4000    -490.8750      16.4048      53.9376       0.0064       0.0528       5.2014       2.7624      12.8895
    7945.0      40.1415      32.3711      57.1000    -490.6250      22.2596      56.7272       0.0062       0.0541       4.6575       2.7742      13.0020
    7944.5      48.8216      36.9243      55.0000    -490.5625      20.3812      52.3215       0.0072       0.0433       4.6236       2.7458      13.0206
    7944.0      56.6509      41.0200      54.3000    -490.6250      20.5432      53.3995       0.0078       0.0385       5.1445       2.7304      13.0152
    7943.5      64.5511      44.2867      55.5000    -490.9375      25.2544      52.2288       0.0118       0.0463       5.3837       2.7191      13.0113
    7943.0      68.4037      44.9736      57.1000    -491.6875      24.7084      52.2373       0.0147       0.0594       5.5840       2.7278      12.9365
    7942.5      74.1362      44.0228      61.4000    -491.8125      25.6974      51.1682       0.0170       0.0591       5.8147       2.7201      12.8351
    7942.0      70.4501      38.1641      63.1000    -491.8125      25.1009      54.1010       0.0128       0.0610       5.7928       2.7081      12.6050
    7941.5      38.5571      23.1020      65.0000    -490.8750      31.9615      62.5035       0.0100       0.0584       5.5499       2.6869      12.4492
    7941.0      21.1244      14.1888      66.0000    -490.5000      29.4372      71.8449       0.0181       0.0445       4.7905       2.6631      12.5259
    7940.5      17.1647      13.1695      62.6000    -490.1875      10.9084      75.7243       0.0312       0.0192       4.5270       2.6452      12.6520
    7940.0      15.3378      12.3414      61.3000    -490.5000       8.4375      73.5999       0.0429       0.0242       4.6588       2.6664      12.8425
    7939.5      15.7908      12.4419      61.3000    -490.4375      23.4943      68.0005       0.0368       0.0222       5.0395       2.6693      12.9439
    7939.0      19.2613      14.6583      60.9000    -490.6250      13.4432      65.5962       0.0398       0.0240       5.1396       2.6664      13.0923
    7938.5      20.5408      15.3341      58.4000    -490.3125      12.9399      60.9150       0.0466       0.0289       4.8399       2.6668      13.2657
    7938.0      19.6806      15.1512      58.5000    -490.2500       7.6537      54.7521       0.0531       0.0326       4.4740       2.6769      13.2951
    7937.5      20.9026      15.4578      59.2000    -490.4375       7.7790      50.0857       0.0590       0.0335       4.5590       2.6838      13.2580
    7937.0      21.9411      15.7479      59.9000    -490.3750       5.9328      47.8313       0.0684       0.0548       4.8003       2.7012      13.1764
    7936.5      21.7665      15.2946      61.7000    -489.9375       9.1093      51.0355       0.0739       0.0873       5.1398       2.7263      13.0057
    7936.0      19.8417      13.6119      63.8000    -488.7500      11.3529      51.4364       0.0723       0.1178       5.1098       2.7285      12.8549
    7935.5      14.5223      10.0789      64.1000    -488.0625       7.2301      53.8304       0.0739       0.1325       5.6237       2.6868      12.8474
    7935.0      11.4295       8.1459      65.2000    -487.6250       5.6424      53.0293       0.0744       0.1307       6.0787       2.6362      12.8004
    7934.5       9.8846       7.3183      64.6000    -487.3125       3.0923      53.3149       0.0857       0.1153       5.9722       2.6011      12.7955
    7934.0       9.4690       6.9943      64.9000    -486.7500       2.8297      50.2427       0.0892       0.0911       5.6311       2.5929      12.7955
    7933.5       9.6282       7.2237      64.2000    -486.5000       2.8959      48.1143       0.0929       0.0587       5.2367       2.5772      12.7980
    7933.0       9.7969       7.2719      63.6000    -486.3750       2.8115      43.8561       0.0915       0.0346       5.4038       2.5634      12.7930
    7932.5       9.5626       7.2846      62.6000    -485.6875       4.0625      46.1358       0.1025       0.0282       5.5963       2.5619      12.6619
    7932.0       9.5710       6.9992      61.7000    -485.8125       2.6009      46.2694       0.1125       0.0253       5.9830       2.5560      12.5491
    7931.5       9.6068       6.8646      60.8000    -486.0625       2.6618      47.6877       0.1239       0.0260       6.6580       2.5524      12.4829
    7931.0      10.5123       7.0376      59.4000    -485.1875       2.4353      45.4079       0.1190       0.0372       6.7882       2.5604      12.2919
    7930.5      11.8834       8.0798      58.8000    -484.1250       2.5712      44.3393       0.1071       0.0400       6.9036       2.5757      12.1704
    7930.0      15.5854       9.9333      57.2000    -483.7500       3.1503      43.1448       0.0764       0.0337       6.5799       2.5893      12.1651
    7929.5      23.5338      14.1355      58.4000    -483.4375       6.4920      44.5745       0.0459       0.0392       6.4682       2.6339      12.1923
    7929.0      37.4583      20.5597      59.1000    -483.0625       7.1321      48.0474       0.0238       0.0356       6.5182       2.6697      12.5544
    7928.5      44.6251      23.7525      59.2000    -482.9375      18.8037      49.9254       0.0203       0.0266       6.4177       2.7022      12.7956
    7928.0      41.5168      22.3365      58.2000    -482.7500      27.0368      50.3745       0.0209       0.0353       6.0962       2.7175      12.9488
    7927.5      39.8906      21.5756      57.6000    -482.5625      21.6032      51.4431       0.0240       0.0369       6.0170       2.7174      13.0476
    7927.0      41.5394      22.4335      57.1000    -482.3750      19.0505      55.9697       0.0247       0.0269       5.7702       2.6902      13.1265
    7926.5      43.7539      22.9767      58.4000    -482.3750      15.3728      58.7762       0.0257       0.0338       5.8208       2.6898      13.0922
    7926.0      44.7800      22.8333      60.1000    -482.2500      72.0331      62.2491       0.0290       0.0464       5.6024       2.6936      12.9439
    7925.5      46.1583      23.5012      61.3000    -482.0625      32.6876      64.6605       0.0302       0.0711       5.9397       2.7103      12.8029
    7925.0      41.3566      21.0496      62.8000    -481.6250      15.1114      68.6576       0.0356       0.1102       5.6441       2.7297      12.7955
    7924.5      24.0341      11.9801      63.6000    -480.9375      21.7610      65.7289       0.0369       0.1340       5.5514       2.7144      12.7609
    7924.0      14.8974       7.9841      64.0000    -480.4375      18.9268      60.1960       0.0478       0.1310       5.2768       2.6650      12.6547
    7923.5      11.6727       6.3512      64.2000    -480.3750       8.0019      55.7880       0.0628       0.1375       5.7388       2.6527      12.6521
    7923.0       9.1788       5.2307      65.6000    -480.0625       3.0071      54.5574       0.0785       0.1126       5.9710       2.6306      12.7106
    7922.5       7.9791       4.6486      64.5000    -479.8125       2.2908      57.6859       0.0906       0.0875       6.4178       2.6292      12.7782
    7922.0       7.6970       4.5544      64.8000    -479.4375       2.1457      57.0276       0.0944       0.0538       6.2863       2.5975      12.7733
    7921.5       8.0806       4.7819      65.8000    -479.0625       2.0367      56.6455       0.1058       0.0440       6.2808       2.5857      12.7534
    7921.0       8.2634       4.8806      65.5000    -478.5625       2.0392      54.2411       0.1138       0.0401       6.5365       2.5787      12.6374
    7920.5       8.1430       4.9080      65.6000    -478.1250       2.1172      53.4300       0.1281       0.0587       7.0274       2.5960      12.4148
    7920.0       8.3041       4.7857      66.1000    -477.7500       2.0692      52.2363       0.1287       0.0687       6.9719       2.6101      12.2693
