~VERSION INFORMATION
VERS.           2.0   :CWLS Log ASCII Standard - VERSION 2.0
WRAP.           NO    :One Line per depth step
PROD.  Schlumberger   :LAS Producer
PROG.  DLIS to ASCII 13C0-300                          :LAS Program name and version
CREA.        2011/08/08 09:00                          :LAS Creation date {YYYY/MM/DD hh:mm}
SOURCE.     DLL_SONIC_MSFL_CNL_033PUP.DLIS             :DLIS File Name
FILE-ID.     DLL_SONIC_MSFL_CNL_033PUP                 :File Identification Number
#--------------------------------------------------
~WELL INFORMATION
#MNEM.UNIT      DATA             DESCRIPTION
#---- ------ --------------   -----------------------------
STRT .F         8621.5       :START DEPTH     
STOP .F         6875.5       :STOP DEPTH     
STEP .F           -0.5       :STEP     
NULL .          -999.25      :NULL VALUE
COMP .        PT Pertamina EP Region Jawa              :COMPANY
WELL .        MLD-05/ MLD-B1                           :WELL
FLD  .        Melandong                                :FIELD
LOC  .                                                 :LOCATION
CNTY .        MSH-2000                                 :COUNTY
STAT .        West Java                                :STATE
CTRY .        Indonesia                                :COUNTRY
API  .                                                 :API NUMBER
UWI  .                                                 :UNIQUE WELL ID
DATE .        07-Aug-2011                              :LOG DATE {DD-MMM-YYYY}
SRVC .        Schlumberger                             :SERVICE COMPANY
LATI .DEG                                              :LATITUDE
LONG .DEG                                              :LONGITUDE
GDAT .                                                 :GeoDetic Datum
#-----------------------------------------------------------------------------
~PARAMETER INFORMATION
#MNEM.UNIT    VALUE                      DESCRIPTION
#---- -----   --------------------       ------------------------
RUN  .          1                        :RUN NUMBER
PDAT .        MSL                        :Permanent Datum
EPD  .M           0.000000               :Elevation of Permanent Datum above Mean Sea Level
EPD  .M           0.000000               :Elevation of tool zero above Mean Sea Level
LMF  .          DF                       :Logging Measured From (Name of Logging Elevation Reference)
APD  .M          10.040000               :Elevation of Depth Reference (LMF) above Permanent Datum
#-----------------------------------------------------------------------------
~CURVE INFORMATION
#MNEM.UNIT   API CODE                                  DESCRIPTION
#---- -----  --------                                  -----------------------
DEPT .F                                                :DEPTH (BOREHOLE) {F10.1}
LLD  .OHMM                                             :DEEP RESISTIVITY {F13.4}
LLS  .OHMM                                             :SHALLOW RESISTIVITY {F13.4}
DT   .US/F                                             :Delta-T {F13.4}
SP   .MV                                               :SP Shifted {F13.4}
MSFL .OHMM                                             :MSFL RESISTIVITY {F13.4}
GR   .GAPI                                             :Gamma Ray {F13.4}
NPHI .V/V                                              :Thermal Neutron Porosity (Ratio Method) {F13.4}
DRHO .G/C3                                             :Bulk Density Correction {F13.4}
PEF  .                                                 :Photoelectric Factor {F13.4}
RHOB .G/C3                                             :Bulk Density {F13.4}
CALI .IN                                               :Caliper {F13.4}
#-----------------------------------------------------------------------------
# 
#     DEPT        LLD          LLS          DT           SP           MSFL         GR           NPHI         DRHO         PEF          RHOB         CALI
#
~A  
# ...
    7243.5       1.7805       1.7407      93.7000    -542.3750       2.2292      92.6855       0.2748       0.0677       3.4072       2.5455      13.4386
    7243.0       1.9389       1.7456      94.7000    -542.4375       2.3029      95.8290       0.2561       0.0649       3.6661       2.5456      13.6216
    7242.5       2.0324       1.7486      94.2000    -542.3750       2.3571      98.6669       0.2451       0.0494       3.5572       2.5206      13.6331
    7242.0       1.8961       1.7696      95.1000    -542.3750       2.7173     103.7427       0.2235       0.0341       3.6304       2.5141      13.6591
    7241.5       1.8548       1.7888      94.9000    -542.3125       2.1585     100.2146       0.2233       0.0231       3.3743       2.4992      13.6517
    7241.0       1.9516       1.7561      94.7000    -542.1875       2.3399      98.0763       0.2290       0.0176       3.5193       2.5003      13.5672
    7240.5       1.9172       1.7048      95.1000    -542.3750       2.2782      96.3398       0.2399       0.0161       3.4344       2.4913      13.4191
    7240.0       1.7384       1.6623      95.0000    -542.2500       2.8550      97.0080       0.2434       0.0203       3.5897       2.5035      13.3017
    7239.5       1.7792       1.6496      95.6000    -542.2500       2.0921      96.3241       0.2321       0.0289       3.3927       2.5182      13.2753
    7239.0       1.9361       1.6722      95.4000    -542.1875       2.1927      95.2722       0.2209       0.0309       3.2869       2.5162      13.3597
    7238.5       1.8772       1.6961      94.1000    -542.1875       2.6221      95.2558       0.2132       0.0383       3.3913       2.5221      13.4559
    7238.0       1.8428       1.7481      91.2000    -542.0000       2.6603      93.1186       0.2299       0.0444       3.7191       2.5388      13.6220
    7237.5       2.0125       1.7900      91.1000    -541.9375       2.4091      90.5794       0.2269       0.0400       3.7981       2.5358      13.8160
    7237.0       2.1042       1.8393      91.8000    -541.8125       2.4775      90.7130       0.2311       0.0347       3.7404       2.5268      14.0427
    7236.5       2.0010       1.8750      91.6000    -541.8750       2.4008      95.5217       0.2260       0.0346       3.5328       2.5082      14.1269
    7236.0       2.0774       1.9228      91.4000    -541.8125       2.8692      95.2544       0.2457       0.0308       3.8237       2.5147      14.1064
    7235.5       2.1562       1.8738      91.3000    -541.7500       2.4827      94.3193       0.2513       0.0274       3.7235       2.5174      13.9586
    7235.0       2.1060       1.8565      92.4000    -541.3750       2.7748      90.7280       0.2258       0.0400       3.6363       2.5413      13.7731
    7234.5       1.9672       1.8489      92.0000    -541.1250       2.4819      88.3084       0.2027       0.0405       3.4146       2.5480      13.5280
    7234.0       2.0663       1.8325      92.6000    -541.0625       2.6248      86.1712       0.2022       0.0432       3.2832       2.5527      13.2677
    7233.5       2.0889       1.8046      92.1000    -541.1250       3.0615      84.9939       0.2167       0.0449       3.3024       2.5567      13.2407
    7233.0       1.9887       1.7881      91.7000    -540.9375       2.5624      87.3830       0.2206       0.0362       3.2725       2.5421      13.2877
    7232.5       1.9242       1.7557      92.1000    -540.6875       2.2952      88.7344       0.2133       0.0398       3.4115       2.5474      13.4260
    7232.0       2.0941       1.7761      92.1000    -540.5625       2.6730      92.4302       0.2154       0.0361       3.4126       2.5431      13.5347
    7231.5       2.0348       1.8112      92.9000    -540.5000       2.4607      96.8579       0.2178       0.0206       3.4103       2.5283      13.6653
    7231.0       1.9389       1.8080      92.8000    -540.5625       2.7656      94.9869       0.2239       0.0127       3.4141       2.5180      13.8022
    7230.5       2.0069       1.7543      92.2000    -540.4375       2.8268      96.1933       0.2293       0.0119       3.5132       2.5136      13.8399
    7230.0       1.9797       1.7067      90.7000    -540.2500       2.3183      93.7844       0.2281       0.0066       3.4853       2.5137      13.8442
    7229.5       1.8416       1.6885      91.9000    -540.0625       2.3392      94.0517       0.2355       0.0089       3.4444       2.5288      13.8051
    7229.0       1.8599       1.7385      91.0000    -540.0000       2.2480      91.6632       0.2367       0.0146       3.2180       2.5345      13.6993
    7228.5       2.0550       1.7547      91.4000    -539.6250       2.6306      92.5983       0.2359       0.0188       3.3146       2.5399      13.4680
    7228.0       2.0425       1.7931      91.2000    -539.3125       3.0421      95.7893       0.2381       0.0189       3.3432       2.5280      13.2457
    7227.5       1.9449       1.7839      89.9000    -539.0625       2.7396      95.6398       0.2174       0.0279       3.6218       2.5514      13.2191
    7227.0       1.9939       1.7670      89.7000    -538.9375       2.4745      96.5921       0.2110       0.0379       3.4055       2.5652      13.2924
    7226.5       2.1168       1.7516      87.1000    -538.6875       2.5112      97.2600       0.1875       0.0324       3.2343       2.5584      13.3347
    7226.0       2.0343       1.7659      85.5000    -538.3750       2.9485      98.0455       0.1882       0.0334       3.1880       2.5544      13.4042
    7225.5       2.0219       1.8426      85.5000    -537.8750       2.3767      96.2918       0.1862       0.0460       3.4646       2.5539      13.6410
    7225.0       2.1878       1.9399      85.6000    -537.6250       2.4246      91.2301       0.1824       0.0540       3.7015       2.5769      13.7280
    7224.5       2.3728       2.0153      87.7000    -537.3125       2.5112      89.9258       0.1929       0.0416       3.5580       2.5502      13.7255
    7224.0       2.3964       2.0423      89.3000    -536.8125       2.5377      88.3229       0.1994       0.0425       3.4820       2.5634      13.7015
    7223.5       2.3374       2.0681      89.7000    -536.1875       2.5459      90.9958       0.2198       0.0490       3.3656       2.5531      13.5570
    7223.0       2.3460       2.0601      89.4000    -535.6875       2.5311      92.8728       0.2192       0.0465       3.5917       2.5610      13.4021
    7222.5       2.3684       1.9689      88.5000    -535.2500       2.5158      92.8728       0.2287       0.0460       3.4865       2.5575      13.2479
    7222.0       2.2726       1.9635      87.4000    -534.8750       2.7749      92.7391       0.2062       0.0409       3.5887       2.5535      13.2085
    7221.5       2.2715       2.0129      87.1000    -534.2500       2.9157      90.9958       0.2016       0.0467       3.4416       2.5585      13.2133
    7221.0       2.4153       2.0556      87.3000    -533.9375       3.1832      90.5950       0.1826       0.0436       3.5446       2.5522      13.2882
    7220.5       2.5417       2.1015      86.3000    -533.4375       3.1561      91.9315       0.1860       0.0380       3.4065       2.5504      13.3293
    7220.0       2.6103       2.2179      86.4000    -532.7500       3.1594      92.5997       0.1909       0.0324       3.4415       2.5471      13.4881
    7219.5       2.7359       2.2886      87.1000    -532.0625       3.1450      94.6197       0.1949       0.0422       3.4532       2.5623      13.5925
    7219.0       2.8918       2.3071      87.4000    -531.3125       3.1593      95.6721       0.1943       0.0324       3.4952       2.5571      13.5940
    7218.5       2.8156       2.3264      88.1000    -530.6875       3.0071      94.2020       0.2000       0.0158       3.3635       2.5157      13.6188
    7218.0       2.7366       2.3078      87.9000    -530.0625       3.3927      92.9004       0.2027       0.0265       3.5695       2.5206      13.6190
