~VERSION INFORMATION
VERS.           2.0   :CWLS Log ASCII Standard - VERSION 2.0
WRAP.           NO    :One Line per depth step
PROD.  Schlumberger   :LAS Producer
PROG.  DLIS to ASCII 13C0-300                          :LAS Program name and version
CREA.        2011/08/08 09:00                          :LAS Creation date {YYYY/MM/DD hh:mm}
SOURCE.     DLL_SONIC_MSFL_CNL_033PUP.DLIS             :DLIS File Name
FILE-ID.     DLL_SONIC_MSFL_CNL_033PUP                 :File Identification Number
#--------------------------------------------------
~WELL INFORMATION
#MNEM.UNIT      DATA             DESCRIPTION
#---- ------ --------------   -----------------------------
STRT .F         8621.5       :START DEPTH     
STOP .F         6875.5       :STOP DEPTH     
STEP .F           -0.5       :STEP     
NULL .          -999.25      :NULL VALUE
COMP .        PT Pertamina EP Region Jawa              :COMPANY
WELL .        MLD-05/ MLD-B1                           :WELL
FLD  .        Melandong                                :FIELD
LOC  .                                                 :LOCATION
CNTY .        MSH-2000                                 :COUNTY
STAT .        West Java                                :STATE
CTRY .        Indonesia                                :COUNTRY
API  .                                                 :API NUMBER
UWI  .                                                 :UNIQUE WELL ID
DATE .        07-Aug-2011                              :LOG DATE {DD-MMM-YYYY}
SRVC .        Schlumberger                             :SERVICE COMPANY
LATI .DEG                                              :LATITUDE
LONG .DEG                                              :LONGITUDE
GDAT .                                                 :GeoDetic Datum
#-----------------------------------------------------------------------------
~PARAMETER INFORMATION
#MNEM.UNIT    VALUE                      DESCRIPTION
#---- -----   --------------------       ------------------------
RUN  .          1                        :RUN NUMBER
PDAT .        MSL                        :Permanent Datum
EPD  .M           0.000000               :Elevation of Permanent Datum above Mean Sea Level
EPD  .M           0.000000               :Elevation of tool zero above Mean Sea Level
LMF  .          DF                       :Logging Measured From (Name of Logging Elevation Reference)
APD  .M          10.040000               :Elevation of Depth Reference (LMF) above Permanent Datum
#-----------------------------------------------------------------------------
~CURVE INFORMATION
#MNEM.UNIT   API CODE                                  DESCRIPTION
#---- -----  --------                                  -----------------------
DEPT .F                                                :DEPTH (BOREHOLE) {F10.1}
LLD  .OHMM                                             :DEEP RESISTIVITY {F13.4}
LLS  .OHMM                                             :SHALLOW RESISTIVITY {F13.4}
DT   .US/F                                             :Delta-T {F13.4}
SP   .MV                                               :SP Shifted {F13.4}
MSFL .OHMM                                             :MSFL RESISTIVITY {F13.4}
GR   .GAPI                                             :Gamma Ray {F13.4}
NPHI .V/V                                              :Thermal Neutron Porosity (Ratio Method) {F13.4}
DRHO .G/C3                                             :Bulk Density Correction {F13.4}
PEF  .                                                 :Photoelectric Factor {F13.4}
RHOB .G/C3                                             :Bulk Density {F13.4}
CALI .IN                                               :Caliper {F13.4}
#-----------------------------------------------------------------------------
# 
#     DEPT        LLD          LLS          DT           SP           MSFL         GR           NPHI         DRHO         PEF          RHOB         CALI
#
~A  
# ...
    8387.5      13.0633      11.4604      57.3000    -535.1250      23.7537      54.2110       0.0178       0.0467       5.2604       2.7353      12.9686
    8387.0      12.3560      11.1008      56.7000    -536.0625      15.4113      58.0746       0.0339       0.0433       5.2637       2.7122      12.8524
    8386.5      13.4888      12.1000      57.5000    -536.5625       7.9788      56.4631       0.0388       0.0579       5.2671       2.7122      12.5852
    8386.0      15.8291      14.0912      62.1000    -537.1875      15.8182      55.5388       0.0341       0.0783       5.4877       2.7344      12.4418
    8385.5      18.6921      16.8634      67.7000    -537.8750      19.9711      54.9950       0.0160       0.0656       5.6662       2.7086      12.3793
    8385.0      19.3066      17.9285      74.9000    -537.2500      30.7805      60.3353       0.0132       0.0606       5.4168       2.6860      12.3824
    8384.5      14.9719      14.3846      76.4000    -537.3750      20.1881      62.4714       0.0131       0.0648       5.1712       2.6757      12.5754
    8384.0       8.8969       8.7548      72.6000    -538.5000       9.3406      67.8214       0.0300       0.0417       4.8552       2.6538      12.9093
    8383.5       4.9834       5.1651      67.4000    -539.2500       6.9399      75.2978       0.0818       0.0245       4.7948       2.6407      13.0924
    8383.0       3.9965       4.2046      61.6000    -540.2500       4.1402      80.6568       0.1320       0.0223       4.7959       2.6310      13.1027
    8382.5       4.2537       4.3660      59.0000    -540.5000       2.7935      80.5357       0.1377       0.0182       4.9269       2.6477      13.1147
    8382.0       5.4996       5.3330      58.6000    -540.6875       7.0274      69.9887       0.0985       0.0139       4.8927       2.6584      13.0206
    8381.5       8.2928       8.1009      58.4000    -540.3125       8.4726      59.8150       0.0531       0.0214       5.3429       2.6864      12.8748
    8381.0      16.7400      15.3764      59.3000    -540.0000      21.9733      55.7974       0.0344       0.0275       6.0091       2.6905      12.7757
    8380.5      30.5625      25.8258      62.0000    -540.0000      16.6133      51.2582       0.0283       0.0471       6.1402       2.7054      12.5829
    8380.0      34.0768      26.9996      62.1000    -538.8125      11.6232      51.4261       0.0284       0.0600       6.1653       2.6808      12.5118
    8379.5      25.7405      21.0887      61.7000    -538.7500      11.5953      47.8214       0.0307       0.0449       6.0423       2.6229      12.5036
    8379.0      19.2654      17.0561      60.7000    -538.8125       5.6862      48.8815       0.0419       0.0448       6.8869       2.6080      12.4836
    8378.5      16.1923      14.6255      58.8000    -538.5625       4.3364      49.2560       0.0472       0.0409       6.3630       2.6277      12.7955
    8378.0      15.9391      14.4856      57.2000    -538.1250       5.6303      48.7137       0.0453       0.0346       5.5856       2.6522      13.0974
    8377.5      21.4401      18.6286      56.0000    -537.8125       6.1894      46.9790       0.0308       0.0246       5.0068       2.6792      13.1096
    8377.0      30.1114      24.9596      55.8000    -538.1250      16.9973      44.3089       0.0192       0.0240       4.9397       2.6885      13.1108
    8376.5      39.6340      30.2843      54.7000    -537.9375      38.6607      43.3748       0.0113       0.0251       5.0583       2.7024      13.0007
    8376.0      50.4918      36.4460      55.1000    -537.9375      29.8843      45.9101       0.0085       0.0322       5.1988       2.7014      12.7757
    8375.5      55.9132      38.7539      55.6000    -537.8125      26.6391      45.6288       0.0078       0.0356       5.0111       2.7135      12.5605
    8375.0      53.6894      36.8533      54.6000    -537.6250      28.6946      43.2883       0.0070       0.0445       4.9235       2.7201      12.4690
    8374.5      55.4986      36.8500      54.7000    -537.1250      26.1428      43.8394       0.0047       0.0487       4.9606       2.7196      12.3330
    8374.0      56.5033      37.0824      55.1000    -536.8125      28.4434      45.7309       0.0018       0.0456       5.3457       2.7167      12.3725
    8373.5      55.2632      36.7479      54.7000    -536.5000      37.4525      52.8928       0.0005       0.0438       5.6153       2.7288      12.7138
    8373.0      52.0680      36.4955      55.5000    -536.0625      26.4261      49.5534      -0.0003       0.0435       5.3004       2.7407      12.9331
    8372.5      44.9260      33.2543      57.0000    -536.1875      20.9054      49.2942       0.0017       0.0508       5.1936       2.7523      13.0255
    8372.0      39.9624      30.4657      58.6000    -536.6250      21.5154      45.2899       0.0030       0.0498       5.1908       2.7597      13.0974
    8371.5      36.2583      27.8696      60.1000    -537.3750      32.0697      49.2972       0.0061       0.0553       5.1100       2.7739      13.0577
    8371.0      28.1524      22.0482      61.3000    -537.4375      27.5916      52.0942       0.0105       0.0590       4.8626       2.7784      12.9513
    8370.5      24.9970      20.9570      59.8000    -537.1875      31.7552      56.8254       0.0197       0.0648       4.7704       2.7712      12.8004
    8370.0      24.6022      20.2651      62.0000    -536.7500      15.7561      54.3406       0.0274       0.0468       4.7549       2.7243      12.7139
    8369.5      22.4431      18.8656      64.9000    -536.2500       8.5796      50.3599       0.0318       0.0495       4.9866       2.7031      12.6075
    8369.0      21.7901      18.0859      65.0000    -535.7500      16.7610      48.8246       0.0334       0.0510       5.2090       2.6753      12.5135
    8368.5      21.7215      18.1992      65.3000    -535.7500       8.3525      52.9124       0.0366       0.0447       5.1864       2.6521      12.5805
    8368.0      18.6123      15.9797      64.1000    -535.7500       6.6229      56.7689       0.0459       0.0289       5.3173       2.6281      12.8919
    8367.5      15.5178      13.7153      62.1000    -535.9375       5.3188      57.0459       0.0506       0.0302       4.9359       2.6325      13.0083
    8367.0      15.5800      13.7034      60.7000    -535.8750       3.9807      55.5766       0.0564       0.0220       5.0469       2.6291      13.0256
    8366.5      19.4095      16.6900      60.5000    -536.1250       4.8737      52.0143       0.0461       0.0136       4.8860       2.6339      13.0205
    8366.0      27.0466      22.1805      59.5000    -536.3125       8.8633      49.0672       0.0348       0.0141       5.0266       2.6345      12.9736
    8365.5      42.6825      31.4758      60.1000    -536.2500      17.6160      51.8828       0.0217       0.0225       5.2629       2.6615      12.8647
    8365.0      64.0059      40.9714      59.6000    -536.6250      24.2295      55.8814       0.0163       0.0162       5.4398       2.6675      12.7658
    8364.5      80.3531      45.5935      59.0000    -537.5000      28.7237      59.0855       0.0123       0.0241       5.4063       2.6916      12.6101
    8364.0      74.1362      41.2019      63.4000    -537.8750      21.8956      57.6897       0.0112       0.0343       5.3949       2.7022      12.4789
    8363.5      52.2001      32.0550      72.6000    -538.0625      37.0281      56.8433       0.0104       0.0348       5.5454       2.7119      12.4694
    8363.0      30.3022      21.2456      80.7000    -538.2500      31.7919      54.4402       0.0103       0.0335       6.4448       2.7244      12.4913
    8362.5      13.7927      11.4997      88.1000    -538.4375      31.3670      57.7070       0.0129       0.0461       6.3000       2.7401      12.7337
    8362.0       5.8144       5.2135      88.8000    -538.6250      15.1353      70.1441       0.0422       0.0389       5.8131       2.6991      12.9464
