~VERSION INFORMATION
VERS.           2.0   :CWLS Log ASCII Standard - VERSION 2.0
WRAP.           NO    :One Line per depth step
PROD.  Schlumberger   :LAS Producer
PROG.  DLIS to ASCII 13C0-300                          :LAS Program name and version
CREA.        2011/08/08 09:00                          :LAS Creation date {YYYY/MM/DD hh:mm}
SOURCE.     DLL_SONIC_MSFL_CNL_033PUP.DLIS             :DLIS File Name
FILE-ID.     DLL_SONIC_MSFL_CNL_033PUP                 :File Identification Number
#--------------------------------------------------
~WELL INFORMATION
#MNEM.UNIT      DATA             DESCRIPTION
#---- ------ --------------   -----------------------------
STRT .F         8621.5       :START DEPTH     
STOP .F         6875.5       :STOP DEPTH     
STEP .F           -0.5       :STEP     
NULL .          -999.25      :NULL VALUE
COMP .        PT Pertamina EP Region Jawa              :COMPANY
WELL .        MLD-05/ MLD-B1                           :WELL
FLD  .        Melandong                                :FIELD
LOC  .                                                 :LOCATION
CNTY .        MSH-2000                                 :COUNTY
STAT .        West Java                                :STATE
CTRY .        Indonesia                                :COUNTRY
API  .                                                 :API NUMBER
UWI  .                                                 :UNIQUE WELL ID
DATE .        07-Aug-2011                              :LOG DATE {DD-MMM-YYYY}
SRVC .        Schlumberger                             :SERVICE COMPANY
LATI .DEG                                              :LATITUDE
LONG .DEG                                              :LONGITUDE
GDAT .                                                 :GeoDetic Datum
#-----------------------------------------------------------------------------
~PARAMETER INFORMATION
#MNEM.UNIT    VALUE                      DESCRIPTION
#---- -----   --------------------       ------------------------
RUN  .          1                        :RUN NUMBER
PDAT .        MSL                        :Permanent Datum
EPD  .M           0.000000               :Elevation of Permanent Datum above Mean Sea Level
EPD  .M           0.000000               :Elevation of tool zero above Mean Sea Level
LMF  .          DF                       :Logging Measured From (Name of Logging Elevation Reference)
APD  .M          10.040000               :Elevation of Depth Reference (LMF) above Permanent Datum
#-----------------------------------------------------------------------------
~CURVE INFORMATION
#MNEM.UNIT   API CODE                                  DESCRIPTION
#---- -----  --------                                  -----------------------
DEPT .F                                                :DEPTH (BOREHOLE) {F10.1}
LLD  .OHMM                                             :DEEP RESISTIVITY {F13.4}
LLS  .OHMM                                             :SHALLOW RESISTIVITY {F13.4}
DT   .US/F                                             :Delta-T {F13.4}
SP   .MV                                               :SP Shifted {F13.4}
MSFL .OHMM                                             :MSFL RESISTIVITY {F13.4}
GR   .GAPI                                             :Gamma Ray {F13.4}
NPHI .V/V                                              :Thermal Neutron Porosity (Ratio Method) {F13.4}
DRHO .G/C3                                             :Bulk Density Correction {F13.4}
PEF  .                                                 :Photoelectric Factor {F13.4}
RHOB .G/C3                                             :Bulk Density {F13.4}
CALI .IN                                               :Caliper {F13.4}
#-----------------------------------------------------------------------------
# 
#     DEPT        LLD          LLS          DT           SP           MSFL         GR           NPHI         DRHO         PEF          RHOB         CALI
#
~A  
# ...
    7009.5       1.7309       1.7046      89.5000    -538.3750       2.5584      92.5595       0.2302       0.0287       3.4327       2.5609      13.6901
    7009.0       1.7936       1.7052      87.9000    -538.3125       2.2492      93.9912       0.2324       0.0285       3.2914       2.5647      13.6106
    7008.5       1.9300       1.7319      88.1000    -538.1250       2.3124      90.5550       0.2291       0.0270       3.2779       2.5663      13.3943
    7008.0       1.9252       1.7931      88.2000    -538.2500       2.5733      88.7825       0.2331       0.0259       3.2288       2.5576      13.2054
    7007.5       1.9937       1.9048      89.2000    -538.1875       2.6647      86.0125       0.2388       0.0226       3.2726       2.5504      13.1441
    7007.0       2.2067       1.9667      89.8000    -538.2500       2.8878      86.8888       0.2422       0.0206       3.2924       2.5423      13.1433
    7006.5       2.0804       1.9748      88.7000    -538.1250       2.8182      93.1009       0.2401       0.0138       3.2074       2.5326      13.1654
    7006.0       2.0893       1.9700      88.6000    -538.1875       2.6415      95.2982       0.2276       0.0135       3.1786       2.5335      13.2294
    7005.5       2.2263       1.9651      88.4000    -538.0625       2.5584      91.8718       0.2071       0.0127       3.0888       2.5339      13.2629
    7005.0       2.1249       2.0223      88.0000    -538.1250       2.7078      86.2025       0.2033       0.0187       3.0738       2.5317      13.2612
    7004.5       2.1683       2.0782      89.3000    -538.0000       2.7052      84.7707       0.2005       0.0279       3.0560       2.5465      13.2600
    7004.0       2.3622       2.0961      89.4000    -537.7500       2.9716      86.2265       0.2170       0.0267       3.0194       2.5481      13.2854
    7003.5       2.2512       2.0878      88.3000    -537.6875       2.9856      85.9702       0.2194       0.0283       3.0787       2.5583      13.2796
    7003.0       2.1711       2.0417      87.9000    -537.6875       2.9070      82.5597       0.2409       0.0293       3.1006       2.5601      13.3000
    7002.5       2.2373       2.0024      87.1000    -537.5625       2.7301      83.3512       0.2209       0.0283       3.1239       2.5515      13.2556
    7002.0       2.1723       2.0457      86.4000    -537.5625       2.7721      81.7614       0.2182       0.0141       3.1703       2.5337      13.2579
    7001.5       2.2514       2.1035      85.9000    -537.4375       2.6348      83.6191       0.2082       0.0238       3.2333       2.5280      13.2265
    7001.0       2.4782       2.1685      86.0000    -537.4375       3.1319      79.6268       0.2169       0.0267       3.4190       2.5402      13.2575
    7000.5       2.4521       2.2634      85.6000    -537.3125       3.4324      81.4880       0.2055       0.0308       3.3981       2.5572      13.3571
    7000.0       2.5789       2.3284      86.0000    -537.3125       3.0502      82.2899       0.1944       0.0331       3.3469       2.5787      13.3746
    6999.5       2.6651       2.3463      87.0000    -537.1250       3.3534      87.1749       0.1948       0.0373       3.2073       2.5807      13.3840
    6999.0       2.5033       2.3198      87.7000    -536.9375       3.5408      86.6021       0.2015       0.0262       3.1586       2.5617      13.3973
    6998.5       2.4896       2.2962      88.5000    -537.0625       3.9186      87.2554       0.2159       0.0307       3.1528       2.5520      13.3784
    6998.0       2.5593       2.2561      88.9000    -537.0000       3.2535      85.6634       0.2368       0.0393       3.1924       2.5563      13.3760
    6997.5       2.3976       2.2037      89.4000    -536.9375       3.0751      89.2428       0.2513       0.0419       3.1713       2.5634      13.3597
    6997.0       2.2644       2.1718      89.4000    -536.9375       2.8609      89.1241       0.2469       0.0526       3.0613       2.5785      13.2349
    6996.5       2.3718       2.1507      88.6000    -537.1875       2.8148      90.4127       0.2327       0.0596       3.0834       2.5787      13.1469
    6996.0       2.4191       2.1326      87.4000    -537.2500       2.7728      88.5357       0.2053       0.0489       3.1343       2.5545      13.1335
    6995.5       2.4547       2.1624      87.2000    -537.5625       2.8698      87.4666       0.2024       0.0371       3.3745       2.5401      13.1282
    6995.0       2.4597       2.2325      86.8000    -537.6250       2.8297      84.7309       0.1920       0.0432       3.4033       2.5531      13.1921
    6994.5       2.4290       2.2721      86.5000    -537.6875       2.6699      84.4602       0.1994       0.0409       3.4191       2.5627      13.4427
    6994.0       2.4700       2.2931      87.9000    -537.6875       3.0383      87.4004       0.1941       0.0408       3.3782       2.5678      13.4816
    6993.5       2.5370       2.2702      88.3000    -537.8750       3.3345      89.2935       0.1930       0.0467       3.3204       2.5716      13.4670
    6993.0       2.5270       2.2254      87.4000    -537.8125       4.9386      90.8684       0.2048       0.0496       3.3705       2.5756      13.3496
    6992.5       2.4344       2.1392      86.6000    -538.0625       2.8949      90.4674       0.2079       0.0477       3.3822       2.5859      13.2378
    6992.0       2.2524       2.0744      85.1000    -537.8750       2.7767      90.0215       0.2198       0.0522       3.4677       2.6017      13.2162
    6991.5       2.2279       2.0838      86.3000    -538.2500       2.6990      91.4532       0.2111       0.0467       3.5553       2.6061      13.2181
    6991.0       2.2451       2.0990      87.0000    -538.5625       2.8540      91.5049       0.2137       0.0338       3.4035       2.5849      13.2134
    6990.5       2.3668       2.1070      86.3000    -538.6875       4.6576      91.6643       0.2115       0.0235       3.3011       2.5648      13.2189
    6990.0       2.4279       2.1368      87.9000    -538.7500       3.1108      90.3636       0.2089       0.0146       3.2284       2.5545      13.2654
    6989.5       2.4098       2.1510      88.6000    -538.8750       2.9103      88.1992       0.2053       0.0084       3.2581       2.5491      13.3813
    6989.0       2.3588       2.1857      91.0000    -539.0625       2.9876      91.7988       0.2127       0.0087       3.3729       2.5581      13.4187
    6988.5       2.2914       2.1568      94.3000    -539.1875       2.8011      94.3196       0.2453       0.0077       3.3822       2.5441      13.4499
    6988.0       2.1390       1.9318      96.2000    -539.5625       2.9694     101.4263       0.2666       0.0083       3.4457       2.5360      13.4533
    6987.5       1.9595       1.6708      96.6000    -539.8125       2.3016     101.4658       0.2824       0.0093       3.3563       2.5266      13.4423
    6987.0       1.6677       1.4620      96.2000    -540.1250       2.0208     100.4746       0.2643       0.0103       3.4510       2.5278      13.4536
    6986.5       1.4028       1.3206      96.6000    -540.3750       1.8386      92.6767       0.2565       0.0085       3.4260       2.5303      13.4070
    6986.0       1.3137       1.2748      97.5000    -540.7500       1.8460      88.0117       0.2480       0.0077       3.3648       2.5355      13.3733
    6985.5       1.3690       1.2769      97.6000    -540.9375       1.7933      88.1170       0.2441       0.0093       3.3616       2.5383      13.3547
    6985.0       1.4361       1.2735      98.4000    -541.1250       1.8621      93.5308       0.2543       0.0081       3.4559       2.5346      13.3401
    6984.5       1.4247       1.2518      99.3000    -541.1250       1.7715      99.5795       0.2466       0.0095       3.5581       2.5251      13.3384
    6984.0       1.3180       1.2464      99.7000    -541.2500       1.7598      97.9803       0.2727       0.0098       3.6028       2.5189      13.3177
