~VERSION INFORMATION
VERS.           2.0   :CWLS Log ASCII Standard - VERSION 2.0
WRAP.           NO    :One Line per depth step
PROD.  Schlumberger   :LAS Producer
PROG.  DLIS to ASCII 13C0-300                          :LAS Program name and version
CREA.        2011/08/08 09:00                          :LAS Creation date {YYYY/MM/DD hh:mm}
SOURCE.     DLL_SONIC_MSFL_CNL_033PUP.DLIS             :DLIS File Name
FILE-ID.     DLL_SONIC_MSFL_CNL_033PUP                 :File Identification Number
#--------------------------------------------------
~WELL INFORMATION
#MNEM.UNIT      DATA             DESCRIPTION
#---- ------ --------------   -----------------------------
STRT .F         8621.5       :START DEPTH     
STOP .F         6875.5       :STOP DEPTH     
STEP .F           -0.5       :STEP     
NULL .          -999.25      :NULL VALUE
COMP .        PT Pertamina EP Region Jawa              :COMPANY
WELL .        MLD-05/ MLD-B1                           :WELL
FLD  .        Melandong                                :FIELD
LOC  .                                                 :LOCATION
CNTY .        MSH-2000                                 :COUNTY
STAT .        West Java                                :STATE
CTRY .        Indonesia                                :COUNTRY
API  .                                                 :API NUMBER
UWI  .                                                 :UNIQUE WELL ID
DATE .        07-Aug-2011                              :LOG DATE {DD-MMM-YYYY}
SRVC .        Schlumberger                             :SERVICE COMPANY
LATI .DEG                                              :LATITUDE
LONG .DEG                                              :LONGITUDE
GDAT .                                                 :GeoDetic Datum
#-----------------------------------------------------------------------------
~PARAMETER INFORMATION
#MNEM.UNIT    VALUE                      DESCRIPTION
#---- -----   --------------------       ------------------------
RUN  .          1                        :RUN NUMBER
PDAT .        MSL                        :Permanent Datum
EPD  .M           0.000000               :Elevation of Permanent Datum above Mean Sea Level
EPD  .M           0.000000               :Elevation of tool zero above Mean Sea Level
LMF  .          DF                       :Logging Measured From (Name of Logging Elevation Reference)
APD  .M          10.040000               :Elevation of Depth Reference (LMF) above Permanent Datum
#-----------------------------------------------------------------------------
~CURVE INFORMATION
#MNEM.UNIT   API CODE                                  DESCRIPTION
#---- -----  --------                                  -----------------------
DEPT .F                                                :DEPTH (BOREHOLE) {F10.1}
LLD  .OHMM                                             :DEEP RESISTIVITY {F13.4}
LLS  .OHMM                                             :SHALLOW RESISTIVITY {F13.4}
DT   .US/F                                             :Delta-T {F13.4}
SP   .MV                                               :SP Shifted {F13.4}
MSFL .OHMM                                             :MSFL RESISTIVITY {F13.4}
GR   .GAPI                                             :Gamma Ray {F13.4}
NPHI .V/V                                              :Thermal Neutron Porosity (Ratio Method) {F13.4}
DRHO .G/C3                                             :Bulk Density Correction {F13.4}
PEF  .                                                 :Photoelectric Factor {F13.4}
RHOB .G/C3                                             :Bulk Density {F13.4}
CALI .IN                                               :Caliper {F13.4}
#-----------------------------------------------------------------------------
# 
#     DEPT        LLD          LLS          DT           SP           MSFL         GR           NPHI         DRHO         PEF          RHOB         CALI
#
~A  
# ...
    8049.5       2.7334       2.1169     104.8000    -542.7500       2.7851     113.1567       0.3640       0.0447       3.6116       2.5935      13.1716
    8049.0       2.6442       2.0321     108.9000    -542.6250       2.6903     117.8318       0.3665       0.0483       3.9289       2.6050      12.9266
    8048.5       2.5007       1.9798      96.6000    -542.6250       2.4620     120.3512       0.3543       0.0400       4.0020       2.5988      12.7658
    8048.0       2.3026       1.9310      91.5000    -542.5000       2.5428     119.8365       0.3635       0.0365       4.6721       2.6209      12.6743
    8047.5       2.3051       1.8629      93.3000    -542.5000       2.4864     112.4108       0.3733       0.0376       4.9917       2.6363      12.6520
    8047.0       2.4280       1.8641      94.7000    -541.8125       2.5273     109.8915       0.3698       0.0354       4.9995       2.6562      12.6718
    8046.5       2.4776       1.9007      95.6000    -541.6875       2.5437     106.3988       0.3352       0.0399       4.8826       2.6894      12.8375
    8046.0       2.4278       1.9652     101.1000    -541.3750       6.9095     110.0647       0.3149       0.0390       4.3939       2.6957      13.0631
    8045.5       2.5421       2.1009     100.9000    -541.0625       5.3354     112.7893       0.3395       0.0381       4.2172       2.6826      13.1814
    8045.0       2.7341       2.2318     104.0000    -540.6250       2.9173     111.7381       0.3573       0.0175       4.1020       2.6394      13.2234
    8044.5       2.8066       2.2569     101.6000    -540.0000       2.8939     113.0937       0.3496       0.0238       4.0947       2.6352      13.2234
    8044.0       2.8101       2.2498      99.7000    -539.5000       3.7812     110.3504       0.3101       0.0178       3.9808       2.6232      13.2234
    8043.5       2.8197       2.2370     100.4000    -539.1250       3.0502     114.4933       0.3579       0.0133       4.0312       2.6139      13.1886
    8043.0       2.7742       2.2876     101.1000    -538.5000       2.7665     108.8626       0.3871       0.0133       4.4747       2.6107      13.1146
    8042.5       2.8282       2.4400     101.5000    -537.8750       2.9306     116.8544       0.4282       0.0207       4.8384       2.6124      12.9888
    8042.0       2.8834       2.5564     101.1000    -536.8750       2.8087     117.2553       0.3648       0.0147       4.6583       2.5859      12.8647
    8041.5       3.0376       2.6347      98.4000    -536.1250       3.5348     115.5227       0.3476       0.0170       4.2392       2.5717      12.8252
    8041.0       3.0460       2.5714      95.9000    -535.2500       3.4029     106.0794       0.3135       0.0210       4.1000       2.5778      12.8425
    8040.5       2.8934       2.3824      86.4000    -534.4375       2.8560     102.4532       0.3216       0.0244       3.9483       2.5875      12.9291
    8040.0       2.6325       2.2647      77.1000    -533.3750       2.6644     102.4867       0.2823       0.0209       3.9915       2.5973      13.1345
    8039.5       2.8301       2.4877      70.6000    -532.1875       2.5104     100.9995       0.2577       0.0139       3.8625       2.5867      13.1517
    8039.0       3.5219       3.1248      64.5000    -531.0000       2.6965      87.2413       0.2059       0.0107       4.2282       2.5996      13.1517
    8038.5       5.3264       4.2986      63.6000    -530.0625       3.3531      78.5545       0.1582       0.0096       4.6339       2.6261      13.1469
    8038.0       7.6126       6.1477      63.1000    -529.0625       7.0315      62.9171       0.1041       0.0070       5.2620       2.6549      12.9983
    8037.5      12.6283       9.7902      62.4000    -528.0625      11.5003      61.7258       0.0829       0.0110       5.0274       2.6854      12.7709
    8037.0      17.6927      13.1359      61.9000    -526.5625      16.2997      55.8362       0.0728       0.0144       4.9701       2.6886      12.5941
    8036.5      21.0336      15.3925      63.0000    -524.6875      16.9463      59.1847       0.0571       0.0387       4.6730       2.7111      12.5458
    8036.0      25.5357      17.6460      62.9000    -522.3750      23.5838      53.9643       0.0408       0.0595       4.7804       2.7003      12.5310
    8035.5      29.3361      19.4472      62.4000    -520.7500      15.1951      50.6326       0.0282       0.0832       4.9873       2.7099      12.5335
    8035.0      30.3172      19.8258      66.9000    -520.0000      13.9700      49.2968       0.0243       0.0962       5.0694       2.7036      12.6102
    8034.5      29.0798      18.7334      69.7000    -518.8750      12.9819      51.7012       0.0231       0.1026       5.0412       2.7028      12.7906
    8034.0      21.9590      13.8533      71.2000    -516.6875      15.1626      56.6358       0.0336       0.0907       5.1670       2.6789      12.8128
    8033.5      13.1872       8.7829      71.9000    -514.5625      16.4512      54.8994       0.0894       0.0716       5.5619       2.6284      12.9611
    8033.0       7.1293       5.2796      69.8000    -512.6875       3.2616      54.1063       0.1449       0.0477       5.7600       2.5791      13.0364
    8032.5       5.0907       4.0286      70.7000    -510.9375       1.1396      51.3012       0.1923       0.0285       5.6633       2.5290      13.0353
    8032.0       4.6515       3.7219      71.3000    -509.6250       1.4463      48.5039       0.1845       0.0294       5.5476       2.5333      12.9685
    8031.5       4.7810       3.7581      69.0000    -508.6250       1.3976      47.6941       0.1816       0.0460       6.0522       2.5492      12.8153
    8031.0       5.1073       3.9779      68.2000    -507.4375       1.1699      44.8963       0.1719       0.0816       6.3094       2.5721      12.6447
    8030.5       5.2940       4.1336      66.9000    -506.4375       1.0119      45.1556       0.1711       0.1057       6.7737       2.5785      12.4741
    8030.0       5.6277       4.4352      65.5000    -505.7500       1.1218      46.8921       0.1431       0.1098       6.6298       2.5560      12.4326
    8029.5       6.6932       5.1281      64.4000    -505.0625       1.5200      47.8276       0.1141       0.1087       6.7000       2.5587      12.3258
    8029.0       7.2995       5.3976      64.4000    -504.4375       1.6545      46.6254       0.0955       0.0921       6.4884       2.5476      12.3332
    8028.5       7.4241       5.3990      59.6000    -503.5000       2.3438      43.2861       0.0938       0.0488       6.2619       2.5208      12.3975
    8028.0       7.4452       5.1918      58.3000    -503.1250       1.6058      41.8160       0.0974       0.0179       6.3572       2.5005      12.3953
    8027.5       7.8566       5.3090      60.3000    -502.4375       2.3078      41.6824       0.0901       0.0112       6.6837       2.5046      12.3975
    8027.0      10.8413       7.0730      59.4000    -502.0000       2.0552      43.0702       0.0801       0.0124       7.2215       2.5399      12.3901
    8026.5      13.0698       8.2404      59.3000    -501.4375       2.3927      44.5403       0.0704       0.0205       6.5757       2.5776      12.3613
    8026.0      15.7202       9.5953      60.4000    -501.1875       4.3702      48.9483       0.0602       0.0408       6.0477       2.6282      12.3701
    8025.5      21.8511      13.0588      60.0000    -500.5000       7.1774      47.5676       0.0540       0.0594       5.4798       2.6627      12.3694
    8025.0      25.2457      14.7090      60.1000    -500.3125       9.9979      49.4212       0.0456       0.0679       5.3862       2.6683      12.3690
    8024.5      25.3509      14.7688      62.4000    -500.0625      12.9468      45.8147       0.0298       0.0801       5.3061       2.6797      12.3777
    8024.0      24.9617      14.8314      63.5000    -499.7500       9.3146      45.8076       0.0219       0.0891       5.4078       2.6895      12.5234
