~VERSION INFORMATION
VERS.           2.0   :CWLS Log ASCII Standard - VERSION 2.0
WRAP.           NO    :One Line per depth step
PROD.  Schlumberger   :LAS Producer
PROG.  DLIS to ASCII 13C0-300                          :LAS Program name and version
CREA.        2011/08/08 09:00                          :LAS Creation date {YYYY/MM/DD hh:mm}
SOURCE.     DLL_SONIC_MSFL_CNL_033PUP.DLIS             :DLIS File Name
FILE-ID.     DLL_SONIC_MSFL_CNL_033PUP                 :File Identification Number
#--------------------------------------------------
~WELL INFORMATION
#MNEM.UNIT      DATA             DESCRIPTION
#---- ------ --------------   -----------------------------
STRT .F         8621.5       :START DEPTH     
STOP .F         6875.5       :STOP DEPTH     
STEP .F           -0.5       :STEP     
NULL .          -999.25      :NULL VALUE
COMP .        PT Pertamina EP Region Jawa              :COMPANY
WELL .        MLD-05/ MLD-B1                           :WELL
FLD  .        Melandong                                :FIELD
LOC  .                                                 :LOCATION
CNTY .        MSH-2000                                 :COUNTY
STAT .        West Java                                :STATE
CTRY .        Indonesia                                :COUNTRY
API  .                                                 :API NUMBER
UWI  .                                                 :UNIQUE WELL ID
DATE .        07-Aug-2011                              :LOG DATE {DD-MMM-YYYY}
SRVC .        Schlumberger                             :SERVICE COMPANY
LATI .DEG                                              :LATITUDE
LONG .DEG                                              :LONGITUDE
GDAT .                                                 :GeoDetic Datum
#-----------------------------------------------------------------------------
~PARAMETER INFORMATION
#MNEM.UNIT    VALUE                      DESCRIPTION
#---- -----   --------------------       ------------------------
RUN  .          1                        :RUN NUMBER
PDAT .        MSL                        :Permanent Datum
EPD  .M           0.000000               :Elevation of Permanent Datum above Mean Sea Level
EPD  .M           0.000000               :Elevation of tool zero above Mean Sea Level
LMF  .          DF                       :Logging Measured From (Name of Logging Elevation Reference)
APD  .M          10.040000               :Elevation of Depth Reference (LMF) above Permanent Datum
#-----------------------------------------------------------------------------
~CURVE INFORMATION
#MNEM.UNIT   API CODE                                  DESCRIPTION
#---- -----  --------                                  -----------------------
DEPT .F                                                :DEPTH (BOREHOLE) {F10.1}
LLD  .OHMM                                             :DEEP RESISTIVITY {F13.4}
LLS  .OHMM                                             :SHALLOW RESISTIVITY {F13.4}
DT   .US/F                                             :Delta-T {F13.4}
SP   .MV                                               :SP Shifted {F13.4}
MSFL .OHMM                                             :MSFL RESISTIVITY {F13.4}
GR   .GAPI                                             :Gamma Ray {F13.4}
NPHI .V/V                                              :Thermal Neutron Porosity (Ratio Method) {F13.4}
DRHO .G/C3                                             :Bulk Density Correction {F13.4}
PEF  .                                                 :Photoelectric Factor {F13.4}
RHOB .G/C3                                             :Bulk Density {F13.4}
CALI .IN                                               :Caliper {F13.4}
#-----------------------------------------------------------------------------
# 
#     DEPT        LLD          LLS          DT           SP           MSFL         GR           NPHI         DRHO         PEF          RHOB         CALI
#
~A  
# ...
    7477.5       1.5250       1.4019      96.0000    -547.1875       1.8464      92.5162       0.2814       0.0197       3.2547       2.5173      13.6117
    7477.0       1.6349       1.4060      95.8000    -547.1875       1.8349      87.9895       0.2662       0.0165       3.2169       2.5094      13.5898
    7476.5       1.6128       1.4115      96.1000    -547.3750       1.8905      93.7847       0.2647       0.0324       3.1121       2.5287      13.5796
    7476.0       1.5293       1.4136      95.7000    -547.1875       1.8613      92.3153       0.2791       0.0177       3.3181       2.5097      13.5797
    7475.5       1.6754       1.4506      95.1000    -547.1250       2.0916      93.1019       0.2899       0.0189       3.4294       2.5056      13.5771
    7475.0       1.6766       1.4714      95.0000    -546.9375       2.1639      95.2561       0.2731       0.0206       3.5597       2.4986      13.5746
    7474.5       1.6267       1.4976      94.9000    -547.0000       2.1715      95.6569       0.2864       0.0256       3.5668       2.5121      13.5799
    7474.0       1.8112       1.5056      95.1000    -547.0000       2.2584     100.8663       0.2756       0.0212       3.4668       2.5167      13.5821
    7473.5       1.6956       1.5152      95.8000    -547.0000       2.2191      97.9106       0.2946       0.0312       3.3173       2.5299      13.5771
    7473.0       1.6718       1.5233      95.1000    -546.8125       2.2864     100.8311       0.2695       0.0275       3.2942       2.5203      13.5623
    7472.5       1.7638       1.5161      94.3000    -546.8750       2.2602      99.2111       0.2826       0.0177       3.3748       2.4978      13.5641
    7472.0       1.7361       1.4920      94.2000    -546.8750       2.0610     100.0125       0.2711       0.0240       3.5634       2.5059      13.5598
    7471.5       1.6254       1.5054      94.7000    -546.8750       2.1028      97.5926       0.2708       0.0247       3.5913       2.5131      13.5626
    7471.0       1.8319       1.5147      95.3000    -546.8125       2.0392      97.1920       0.2614       0.0288       3.6213       2.5311      13.5573
    7470.5       1.7467       1.5269      95.0000    -546.8125       2.2203      99.0452       0.2710       0.0316       3.4818       2.5296      13.5679
    7470.0       1.6280       1.5140      95.1000    -546.6875       2.3820      94.3893       0.2770       0.0375       3.3939       2.5277      13.5969
    7469.5       1.7866       1.4877      95.2000    -546.7500       2.2954      96.9077       0.2993       0.0341       3.2356       2.5219      13.7020
    7469.0       1.6584       1.4689      95.2000    -546.6875       2.1296      96.3737       0.2911       0.0423       3.3085       2.5387      13.7453
    7468.5       1.5454       1.4575      95.2000    -546.5625       2.1145     103.8318       0.2995       0.0370       3.1212       2.5389      13.7497
    7468.0       1.5852       1.4644      95.2000    -546.7500       2.2461      99.3267       0.2894       0.0271       3.1108       2.5237      13.7408
    7467.5       1.6923       1.4739      94.7000    -546.8750       2.1709      97.8740       0.2829       0.0147       3.1135       2.5023      13.7179
    7467.0       1.7693       1.4755      94.3000    -546.8750       2.0806      94.0043       0.2645       0.0145       3.3563       2.5076      13.7156
    7466.5       1.6641       1.4671      94.4576    -546.6250       2.0906      94.6559       0.2611       0.0086       3.4334       2.5047      13.8027
    7466.0       1.5997       1.4754      94.5800    -546.6875       2.1535      93.5720       0.2708       0.0115       3.5448       2.5190      13.8425
    7465.5       1.5923       1.4975      94.4000    -546.6875       2.1077      93.9888       0.2774       0.0146       3.7702       2.5228      13.8393
    7465.0       1.6719       1.5199      94.4000    -546.8750       2.3366      99.8631       0.2866       0.0241       3.8584       2.5342      13.8955
    7464.5       1.7758       1.5550      93.3000    -546.3750       2.2664     102.5332       0.2850       0.0306       3.7448       2.5462      13.9907
    7464.0       1.8470       1.5634      93.6000    -546.5625       2.3747     105.6220       0.2943       0.0400       3.3484       2.5631      13.9907
    7463.5       1.9454       1.5451      93.8000    -546.6250       2.1664     100.8158       0.2710       0.0483       3.3240       2.5803      14.0248
    7463.0      16.7345       9.1229      94.6000    -546.6875       2.2263     100.9493       0.2690       0.0554       3.2944       2.5800      14.0402
    7462.5     215.7738      55.4261      94.5000    -546.6875       2.4842      98.3027       0.2719       0.0592       3.4225       2.5683      13.9388
    7462.0     214.2387      51.3671      95.2000    -546.8750       2.1118      99.7889       0.2792       0.0519       3.4009       2.5402      13.8181
    7461.5     207.7423      50.7002      95.6000    -546.6250       2.1074      98.5712       0.2865       0.0577       3.5771       2.5363      13.9239
    7461.0     158.9175      52.2399      95.8000    -546.6250       2.1704      99.4641       0.2837       0.0605       3.5894       2.5416      13.9679
    7460.5     752.2233      48.9649      95.6000    -546.6250       2.1383      95.9007       0.2812       0.0540       3.6579       2.5427      13.9639
    7460.0    2755.0889      54.9832      95.9000    -546.8125       2.0548      99.6731       0.2657       0.0446       3.6233       2.5394      13.9715
    7459.5    3079.7891      51.7905      95.9000    -546.8125       2.1346      98.1038       0.2530       0.0342       3.6405       2.5252      13.9129
    7459.0     996.8969      55.1721      96.0000    -546.7500       2.0159      98.8620       0.2632       0.0216       3.7156       2.5189      13.6018
    7458.5     180.2676      55.1510      96.4000    -546.7500       2.1363      95.2555       0.2857       0.0112       3.5810       2.5059      13.4342
    7458.0     196.1976      51.7905      96.2000    -546.9375       2.0911      98.1957       0.2900       0.0093       3.6203       2.5108      13.4315
    7457.5     213.3923      55.1932      96.1000    -546.9375       2.1124     101.9358       0.2827       0.0061       3.5150       2.4915      13.3795
    7457.0     208.5343      61.3050      96.4000    -546.8125       2.0849     105.4267       0.2756       0.0092       3.6818       2.4982      13.3359
    7456.5     321.9321      58.4767      96.4000    -546.6875       2.1864     106.8781       0.2768       0.0100       3.6640       2.4913      13.6418
    7456.0     179.9827      56.5099      96.6000    -546.8750       2.0125     104.7409       0.2800       0.0208       3.6220       2.5118      13.7524
    7455.5      59.9390      51.9022      97.1000    -546.8750       2.0631     101.6507       0.2589       0.0260       3.5243       2.5226      13.7457
    7455.0      69.9696      30.8026      97.2000    -546.6875       2.1352     102.3376       0.2903       0.0377       3.3141       2.5355      13.6270
    7454.5      26.6809      11.7676      97.1000    -546.7500       2.1574     100.8683       0.2880       0.0430       3.3538       2.5464      13.4687
    7454.0       5.2800       4.4298      97.1000    -546.6875       2.0248     104.8900       0.2982       0.0526       3.3806       2.5492      13.3745
    7453.5       1.2855       1.6449      97.0000    -546.9375       1.9044     101.7988       0.2755       0.0466       3.7095       2.5510      13.2951
    7453.0       1.5497       1.3962      96.6000    -546.8750       1.9414     105.1561       0.2857       0.0579       3.6108       2.5650      13.4711
    7452.5       1.4404       1.3578      95.5000    -547.0000       1.9505     100.4825       0.2929       0.0574       3.5530       2.5643      13.8022
    7452.0       1.4633       1.3596      94.8000    -546.6250       1.9857     102.0516       0.2859       0.0524       3.5201       2.5640      13.9432
