~VERSION INFORMATION
VERS.           2.0   :CWLS Log ASCII Standard - VERSION 2.0
WRAP.           NO    :One Line per depth step
PROD.  Schlumberger   :LAS Producer
PROG.  DLIS to ASCII 13C0-300                          :LAS Program name and version
CREA.        2011/08/08 09:00                          :LAS Creation date {YYYY/MM/DD hh:mm}
SOURCE.     DLL_SONIC_MSFL_CNL_033PUP.DLIS             :DLIS File Name
FILE-ID.     DLL_SONIC_MSFL_CNL_033PUP                 :File Identification Number
#--------------------------------------------------
~WELL INFORMATION
#MNEM.UNIT      DATA             DESCRIPTION
#---- ------ --------------   -----------------------------
STRT .F         8621.5       :START DEPTH     
STOP .F         6875.5       :STOP DEPTH     
STEP .F           -0.5       :STEP     
NULL .          -999.25      :NULL VALUE
COMP .        PT Pertamina EP Region Jawa              :COMPANY
WELL .        MLD-05/ MLD-B1                           :WELL
FLD  .        Melandong                                :FIELD
LOC  .                                                 :LOCATION
CNTY .        MSH-2000                                 :COUNTY
STAT .        West Java                                :STATE
CTRY .        Indonesia                                :COUNTRY
API  .                                                 :API NUMBER
UWI  .                                                 :UNIQUE WELL ID
DATE .        07-Aug-2011                              :LOG DATE {DD-MMM-YYYY}
SRVC .        Schlumberger                             :SERVICE COMPANY
LATI .DEG                                              :LATITUDE
LONG .DEG                                              :LONGITUDE
GDAT .                                                 :GeoDetic Datum
#-----------------------------------------------------------------------------
~PARAMETER INFORMATION
#MNEM.UNIT    VALUE                      DESCRIPTION
#---- -----   --------------------       ------------------------
RUN  .          1                        :RUN NUMBER
PDAT .        MSL                        :Permanent Datum
EPD  .M           0.000000               :Elevation of Permanent Datum above Mean Sea Level
EPD  .M           0.000000               :Elevation of tool zero above Mean Sea Level
LMF  .          DF                       :Logging Measured From (Name of Logging Elevation Reference)
APD  .M          10.040000               :Elevation of Depth Reference (LMF) above Permanent Datum
#-----------------------------------------------------------------------------
~CURVE INFORMATION
#MNEM.UNIT   API CODE                                  DESCRIPTION
#---- -----  --------                                  -----------------------
DEPT .F                                                :DEPTH (BOREHOLE) {F10.1}
LLD  .OHMM                                             :DEEP RESISTIVITY {F13.4}
LLS  .OHMM                                             :SHALLOW RESISTIVITY {F13.4}
DT   .US/F                                             :Delta-T {F13.4}
SP   .MV                                               :SP Shifted {F13.4}
MSFL .OHMM                                             :MSFL RESISTIVITY {F13.4}
GR   .GAPI                                             :Gamma Ray {F13.4}
NPHI .V/V                                              :Thermal Neutron Porosity (Ratio Method) {F13.4}
DRHO .G/C3                                             :Bulk Density Correction {F13.4}
PEF  .                                                 :Photoelectric Factor {F13.4}
RHOB .G/C3                                             :Bulk Density {F13.4}
CALI .IN                                               :Caliper {F13.4}
#-----------------------------------------------------------------------------
# 
#     DEPT        LLD          LLS          DT           SP           MSFL         GR           NPHI         DRHO         PEF          RHOB         CALI
#
~A  
# ...
    7711.5      40.3705      24.7414      57.4000    -523.6250      38.4877      47.9619       0.0108       0.0258       5.4997       2.6982      12.8404
    7711.0      37.1305      23.7868      58.0000    -523.6250      39.6570      50.0991       0.0089       0.0337       5.5356       2.7036      12.8474
    7710.5      36.1450      24.7598      59.5000    -523.5625      14.2856      49.4309       0.0063       0.0363       5.3108       2.7012      13.0230
    7710.0      35.3407      25.0569      59.8000    -524.4375      13.7663      50.5162       0.0035       0.0404       5.3572       2.6977      13.2109
    7709.5      31.1569      23.0642      56.9000    -524.3750      16.6839      49.8574       0.0061       0.0414       5.6757       2.7037      13.3568
    7709.0      26.4029      20.2578      55.7000    -524.5000      24.1297      51.9957       0.0080       0.0465       5.4108       2.7048      13.3691
    7708.5      19.6258      15.6214      54.5000    -524.6250       6.3688      55.7191       0.0130       0.0355       5.3507       2.6992      13.3716
    7708.0      16.0466      13.0625      55.6000    -524.6875       9.4992      54.9172       0.0119       0.0347       5.2679       2.7030      13.2974
    7707.5      16.3767      13.5339      56.5000    -523.9375      11.3099      51.7098       0.0131       0.0282       5.2496       2.7013      13.1219
    7707.0      17.9189      14.4689      56.6000    -523.6250      29.3719      47.5658       0.0120       0.0298       5.2407       2.7140      12.9199
    7706.5      20.6409      16.3580      56.5000    -524.1250      42.1945      48.3586       0.0118       0.0211       5.0026       2.7029      12.7287
    7706.0      23.3486      17.9958      56.8000    -524.2500      38.0809      49.1605       0.0121       0.0264       5.0689       2.7097      12.6497
    7705.5      23.1565      18.2687      58.0000    -524.2500      23.2084      48.4958       0.0110       0.0346       5.1298       2.7007      12.6524
    7705.0      20.7105      16.8802      60.0000    -524.1875      29.0780      50.9001       0.0082       0.0288       5.4887       2.6757      12.8128
    7704.5      17.3060      14.5472      59.9000    -524.3750      37.3969      52.0943       0.0067       0.0309       5.8676       2.6735      12.9543
    7704.0      16.1178      14.0125      60.0000    -524.3125       8.0979      57.9824       0.0082       0.0279       5.7045       2.6626      13.1243
    7703.5      14.5069      12.8841      63.0000    -524.6250      26.0355      60.9328       0.0124       0.0397       5.7473       2.6827      13.2060
    7703.0      13.6937      11.9892      62.1000    -524.6250      13.3478      67.4780       0.0162       0.0323       5.5035       2.6675      13.2582
    7702.5      13.8014      12.0918      63.2000    -524.8750       9.2563      64.6715       0.0179       0.0418       5.7018       2.6948      13.2580
    7702.0      12.5833      11.2394      62.7000    -525.0625      13.4044      64.1254       0.0252       0.0364       5.3982       2.6884      13.2592
    7701.5      11.0389       9.7655      61.9000    -525.1875      23.4611      66.3638       0.0435       0.0534       5.4589       2.7060      13.1787
    7701.0       9.6509       8.7513      64.3000    -524.9375       8.0269      71.4303       0.0671       0.0455       5.6952       2.6800      12.9513
    7700.5       9.6123       8.6659      69.6000    -524.7500       8.9300      71.1745       0.0702       0.0463       5.6118       2.6697      12.7953
    7700.0      10.1740       9.3688      70.9000    -524.5625       8.8464      65.0624       0.0528       0.0432       5.3798       2.6732      12.7361
    7699.5      10.1145       9.2447      71.1000    -524.8750      10.9644      64.1274       0.0329       0.0489       4.9862       2.6800      12.8845
    7699.0       6.8022       6.5717      69.3000    -524.9375      23.3579      70.3941       0.0526       0.0406       4.7930       2.6737      13.1399
    7698.5       5.3377       5.3289      64.2000    -524.8750       3.3808      81.6301       0.0894       0.0350       4.5996       2.6509      13.1640
    7698.0       5.2903       5.2653      61.7000    -524.6250       2.7283      83.3726       0.0991       0.0298       4.6770       2.6474      13.2725
    7697.5       5.5335       5.5115      61.7000    -524.5625       6.4003      76.4267       0.0751       0.0310       4.9710       2.6476      13.3345
    7697.0       7.9359       7.8822      63.0000    -524.5625      11.8461      64.3988       0.0506       0.0328       5.0961       2.6514      13.3332
    7696.5      16.7303      15.1683      63.8000    -524.2500      10.2669      57.3221       0.0533       0.0209       5.2821       2.6258      13.2186
    7696.0      20.6820      18.7283      63.6000    -524.1875       6.2737      56.1199       0.0616       0.0214       5.3665       2.6262      13.0021
    7695.5      20.3987      18.3025      65.6000    -523.9375       6.1687      60.6040       0.0593       0.0228       5.3280       2.6250      12.8350
    7695.0      19.0584      17.0996      64.5000    -523.8125       9.0774      65.5375       0.0668       0.0280       5.0631       2.6380      12.6045
    7694.5      19.4544      17.3222      62.8000    -523.6250      10.8071      66.4725       0.0623       0.0223       5.0768       2.6512      12.5911
    7694.0      19.2767      17.4128      62.9000    -523.8125       8.8060      63.5922       0.0503       0.0306       5.1532       2.6689      12.7856
    7693.5      15.2392      14.4003      60.7000    -523.8125      42.9457      64.8062       0.0404       0.0236       5.3489       2.6736      12.8404
    7693.0      15.1152      14.2271      58.9000    -524.0625      10.6454      64.2719       0.0300       0.0164       5.1365       2.6587      12.9241
    7692.5      16.8291      16.1457      60.5000    -523.7500       9.6158      64.6623       0.0275       0.0183       5.1277       2.6727      13.1096
    7692.0      19.3024      18.3975      61.0000    -523.9375      22.1725      61.5885       0.0175       0.0231       4.8435       2.6729      13.1505
    7691.5      27.0067      24.5626      60.8000    -524.0625      32.4480      62.3486       0.0183       0.0224       5.1729       2.6620      13.1442
    7691.0      34.0857      28.5076      59.9000    -524.1250      35.1481      63.4061       0.0256       0.0294       5.0524       2.6585      13.1452
    7690.5      30.9344      25.5811      58.9000    -523.8125      32.5680      68.0582       0.0448       0.0353       5.3393       2.6619      13.0973
    7690.0      29.8120      24.2574      61.0000    -523.6875      16.1589      69.6906       0.0629       0.0628       5.3831       2.6812      13.0498
    7689.5      29.7155      23.6031      61.1000    -523.7500      19.2904      67.9550       0.0678       0.0911       5.9907       2.6831      13.0329
    7689.0      31.2569      24.8015      60.8000    -523.7500      46.7146      67.0196       0.0683       0.0723       6.4468       2.6123      13.0405
    7688.5      35.4938      26.9944      61.8000    -523.5625      16.1095      63.4149       0.0481       0.0641       6.1219       2.5869      13.0339
    7688.0      37.6194      28.3638      61.5000    -523.7500       9.2094      62.5637       0.0380       0.0780       6.4082       2.6246      13.0009
    7687.5      30.6958      24.9489      60.4000    -523.7500      14.1253      57.3577       0.0268       0.0602       5.9803       2.6602      13.0947
    7687.0      30.0859      25.2507      60.0000    -523.5000      22.8090      54.6962       0.0321       0.0263       5.4560       2.6499      13.1492
    7686.5      31.3487      26.8630      59.9000    -523.2500       9.0815      55.0134       0.0338       0.0256       4.8495       2.6404      13.1505
    7686.0      36.2352      30.8345      59.8000    -523.8750      21.7612      53.8119       0.0316       0.0277       4.7438       2.6328      13.1444
