~VERSION INFORMATION
VERS.           2.0   :CWLS Log ASCII Standard - VERSION 2.0
WRAP.           NO    :One Line per depth step
PROD.  Schlumberger   :LAS Producer
PROG.  DLIS to ASCII 13C0-300                          :LAS Program name and version
CREA.        2011/08/08 09:00                          :LAS Creation date {YYYY/MM/DD hh:mm}
SOURCE.     DLL_SONIC_MSFL_CNL_033PUP.DLIS             :DLIS File Name
FILE-ID.     DLL_SONIC_MSFL_CNL_033PUP                 :File Identification Number
#--------------------------------------------------
~WELL INFORMATION
#MNEM.UNIT      DATA             DESCRIPTION
#---- ------ --------------   -----------------------------
STRT .F         8621.5       :START DEPTH     
STOP .F         6875.5       :STOP DEPTH     
STEP .F           -0.5       :STEP     
NULL .          -999.25      :NULL VALUE
COMP .        PT Pertamina EP Region Jawa              :COMPANY
WELL .        MLD-05/ MLD-B1                           :WELL
FLD  .        Melandong                                :FIELD
LOC  .                                                 :LOCATION
CNTY .        MSH-2000                                 :COUNTY
STAT .        West Java                                :STATE
CTRY .        Indonesia                                :COUNTRY
API  .                                                 :API NUMBER
UWI  .                                                 :UNIQUE WELL ID
DATE .        07-Aug-2011                              :LOG DATE {DD-MMM-YYYY}
SRVC .        Schlumberger                             :SERVICE COMPANY
LATI .DEG                                              :LATITUDE
LONG .DEG                                              :LONGITUDE
GDAT .                                                 :GeoDetic Datum
#-----------------------------------------------------------------------------
~PARAMETER INFORMATION
#MNEM.UNIT    VALUE                      DESCRIPTION
#---- -----   --------------------       ------------------------
RUN  .          1                        :RUN NUMBER
PDAT .        MSL                        :Permanent Datum
EPD  .M           0.000000               :Elevation of Permanent Datum above Mean Sea Level
EPD  .M           0.000000               :Elevation of tool zero above Mean Sea Level
LMF  .          DF                       :Logging Measured From (Name of Logging Elevation Reference)
APD  .M          10.040000               :Elevation of Depth Reference (LMF) above Permanent Datum
#-----------------------------------------------------------------------------
~CURVE INFORMATION
#MNEM.UNIT   API CODE                                  DESCRIPTION
#---- -----  --------                                  -----------------------
DEPT .F                                                :DEPTH (BOREHOLE) {F10.1}
LLD  .OHMM                                             :DEEP RESISTIVITY {F13.4}
LLS  .OHMM                                             :SHALLOW RESISTIVITY {F13.4}
DT   .US/F                                             :Delta-T {F13.4}
SP   .MV                                               :SP Shifted {F13.4}
MSFL .OHMM                                             :MSFL RESISTIVITY {F13.4}
GR   .GAPI                                             :Gamma Ray {F13.4}
NPHI .V/V                                              :Thermal Neutron Porosity (Ratio Method) {F13.4}
DRHO .G/C3                                             :Bulk Density Correction {F13.4}
PEF  .                                                 :Photoelectric Factor {F13.4}
RHOB .G/C3                                             :Bulk Density {F13.4}
CALI .IN                                               :Caliper {F13.4}
#-----------------------------------------------------------------------------
# 
#     DEPT        LLD          LLS          DT           SP           MSFL         GR           NPHI         DRHO         PEF          RHOB         CALI
#
~A  
    8621.5       3.0666       3.4369      95.2000    -537.0625       3.4799     126.4874       0.4191      -0.0386       8.5780       2.0597       3.4289
    8621.0       3.0666       3.4369      95.2000    -537.0625       3.4799     126.4874       0.4191      -0.0386       8.5780       2.0597       3.4289
    8620.5       3.0666       3.4369      95.2000    -537.0625       3.4799     126.4874       0.4191      -0.0287       8.5780       2.0696       3.4289
    8620.0       3.0666       3.4369      95.2000    -537.0625       3.4799     126.4874       0.4191      -0.0180       8.5780       2.0803       3.4289
    8619.5       3.0666       3.4369      95.2000    -537.0625       3.4799     126.4874       0.4191      -0.0056       8.5780       2.0947       3.4289
    8619.0       3.0666       3.4369      95.2000    -537.0625       3.4799     126.4874       0.4191       0.0034       8.0449       2.1083       3.4289
    8618.5       3.0666       3.4369      95.2000    -537.0625       3.4799     126.4874       0.4191       0.0124       7.6443       2.1194       3.4318
    8618.0       3.0666       3.4369      95.2000    -537.0625       3.4799     126.4874       0.4191       0.0129       7.4279       2.1194       3.4344
    8617.5       3.0666       3.4369      95.2000    -537.0625       3.4799     126.4874       0.4191       0.0148       7.4351       2.1201       3.4328
    8617.0       3.0666       3.4369      95.2000    -537.0625       3.4799     126.4874       0.4191       0.0150       7.2446       2.1211       3.4334
    8616.5       3.0666       3.4369      95.2000    -537.0625       3.4799     126.4874       0.4191       0.0186       7.0363       2.1243       3.4331
    8616.0       3.0666       3.4369      95.2000    -537.0625       3.4799     126.4874       0.4191       0.0250       7.0077       2.1235       3.4332
    8615.5       3.0666       3.4369      95.2000    -537.0625       3.4799     126.4874       0.4191       0.0253       7.5098       2.1213       3.4307
    8615.0       3.0666       3.4369      95.2000    -537.0625       3.4799     126.4874       0.4191       0.0202       7.8677       2.1176       3.4332
    8614.5       3.0666       3.4369      95.2000    -537.0625       3.4799     126.4874       0.4191       0.0170       7.8945       2.1178       3.4313
    8614.0       3.0666       3.4369      95.2000    -537.0625       3.4799     126.4874       0.4191       0.0218       7.5774       2.1231       3.4338
    8613.5       3.0666       3.4369      95.2000    -537.0625       3.4799     126.4874       0.4191       0.0148       7.0246       2.1163       3.4307
    8613.0       3.0666       3.4369      95.2000    -537.0625       3.4799     126.4874       0.4191       0.0131       6.9136       2.1185       3.4310
    8612.5       3.0666       3.4369      95.2000    -537.0625       3.4799     126.4874       0.4191       0.0122       6.9528       2.1171       3.4307
    8612.0       3.0666       3.4369      95.2000    -537.0625       3.4799     126.4874       0.4191       0.0101       7.2946       2.1086       3.4307
    8611.5       3.0666       3.4369      95.2000    -537.0625       3.4799     126.4874       0.4191       0.0070       7.7771       2.1019       3.4308
    8611.0       3.0666       3.4369      95.2000    -537.0625       3.4799     126.4874       0.4191       0.0072       7.7902       2.1100       3.4306
    8610.5       3.0666       3.4369      95.2000    -537.0625       3.4799     126.4874       0.4191       0.0044       7.4079       2.1131       3.4284
    8610.0       3.0666       3.4369      95.2000    -537.0625       3.4799     126.4874       0.4191       0.0064       7.0845       2.1144       3.4309
    8609.5       3.0666       3.4369      95.2000    -537.0625       3.4799     126.4874       0.4191       0.0087       7.1040       2.1119       3.4285
    8609.0       3.0666       3.4369      95.2000    -537.0625       3.4799     126.4874       0.4191       0.0090       7.5203       2.1114       3.4284
    8608.5       3.0666       3.4369      95.2000    -537.0625       3.4799     126.4874       0.4191       0.0104       7.5550       2.1131       3.4284
    8608.0       3.0666       3.4369      95.2000    -537.0625       3.4799     126.4874       0.4191       0.0143       7.4122       2.1184       3.4285
    8607.5       3.0666       3.4369      95.2000    -537.0625       3.4799     126.4874       0.4191       0.0205       7.3332       2.1264       3.4283
    8607.0       3.0666       3.4369      95.2000    -537.0625       3.4799     126.4874       0.4191       0.0275       7.3688       2.1365       3.4282
    8606.5       3.0666       3.4369      95.2000    -537.0625       3.4799     126.4874       0.4191       0.0323       7.2655       2.1396       3.4283
    8606.0       3.0666       3.4369      95.2000    -537.0625       3.4799     126.4874       0.4191       0.0404       7.1460       2.1520       3.4260
    8605.5       3.0666       3.4369      95.2000    -537.0625       3.4799     126.4874       0.4191       0.0471       7.0728       2.1809       3.4260
    8605.0       3.0666       3.4369      95.2000    -537.0625       3.4799     126.4874       0.4191       0.0524       7.1275       2.2300       3.4260
    8604.5       3.0666       3.4369      95.2000    -537.0625       3.4799     126.4874       0.4191       0.0575       6.9742       2.2870       3.4238
    8604.0       3.0666       3.4369      95.2000    -537.0625       3.4799     126.4874       0.4191       0.0602       7.2346       2.3250       3.4257
    8603.5       3.0666       3.4369      95.2000    -537.0625       3.4799     126.4874       0.4191       0.0501       7.0690       2.3008       3.4237
    8603.0       3.0666       3.4369      95.2000    -537.0625       3.4799     126.4874       0.4191       0.0409       7.4297       2.2575       3.4261
    8602.5       3.0666       3.4369      95.2000    -537.0625       3.4799     126.4874       0.4191       0.0352       7.0364       2.2398       3.4233
    8602.0       3.9439       3.2835      95.2000    -537.0625       3.4799     126.4874       0.4191       0.0339       6.8149       2.2576       3.4259
    8601.5       3.8316       3.2409      95.2000    -537.0625       3.4799     126.4874       0.4191       0.0482       6.3954       2.3099       3.4230
    8601.0       3.8888       3.2569      95.2000    -537.0625       3.4799     126.4874       0.3943       0.0586       6.2765       2.3475       3.4259
    8600.5       4.0116       3.2356      95.2000    -537.0625       3.4799     126.4874       0.3564       0.0735       6.2604       2.3854       3.4256
    8600.0       4.0569       3.2308      95.2000    -537.0625       3.4799     126.4874       0.3205       0.0887       6.2655       2.4331       3.4257
    8599.5       4.0250       3.2355      95.2000    -537.0625       3.4799     126.4874       0.3095       0.0994       5.8325       2.4639       3.4259
    8599.0       4.1218       3.3621      95.2000    -537.0625       3.4799     126.4874       0.3066       0.0909       5.4509       2.4776       3.4256
    8598.5     188.9579      77.8538      95.2000    -537.0625       3.4799     126.4874       0.3277       0.0747       5.0913       2.4944       4.0454
    8598.0     184.4233      77.9798      95.2000    -537.0625       3.4799     126.4874       0.3445       0.0655       4.9054       2.5403      11.2380
    8597.5     174.4066      78.2845      95.2000    -537.0625       3.4799     126.4874       0.3537       0.0549       4.5727       2.5715      12.0172
    8597.0     237.6596      82.9012      95.2000    -537.0625       3.4799     126.4874       0.3283       0.0481       4.4319       2.5708      12.4025
    8596.5    2281.8044      90.3939      95.2000    -537.0625       3.4799     126.4874       0.3179       0.0498       4.2971       2.5484      12.4405
    8596.0    3511.7471      83.0273      95.2000    -537.0625       3.4799     126.4874       0.3319       0.0647       4.6306       2.5536      12.4222
