~VERSION INFORMATION
VERS.           2.0   :CWLS Log ASCII Standard - VERSION 2.0
WRAP.           NO    :One Line per depth step
PROD.  Schlumberger   :LAS Producer
PROG.  DLIS to ASCII 13C0-300                          :LAS Program name and version
CREA.        2011/08/08 09:00                          :LAS Creation date {YYYY/MM/DD hh:mm}
SOURCE.     DLL_SONIC_MSFL_CNL_033PUP.DLIS             :DLIS File Name
FILE-ID.     DLL_SONIC_MSFL_CNL_033PUP                 :File Identification Number
#--------------------------------------------------
~WELL INFORMATION
#MNEM.UNIT      DATA             DESCRIPTION
#---- ------ --------------   -----------------------------
STRT .F         8621.5       :START DEPTH     
STOP .F         6875.5       :STOP DEPTH     
STEP .F           -0.5       :STEP     
NULL .          -999.25      :NULL VALUE
COMP .        PT Pertamina EP Region Jawa              :COMPANY
WELL .        MLD-05/ MLD-B1                           :WELL
FLD  .        Melandong                                :FIELD
LOC  .                                                 :LOCATION
CNTY .        MSH-2000                                 :COUNTY
STAT .        West Java                                :STATE
CTRY .        Indonesia                                :COUNTRY
API  .                                                 :API NUMBER
UWI  .                                                 :UNIQUE WELL ID
DATE .        07-Aug-2011                              :LOG DATE {DD-MMM-YYYY}
SRVC .        Schlumberger                             :SERVICE COMPANY
LATI .DEG                                              :LATITUDE
LONG .DEG                                              :LONGITUDE
GDAT .                                                 :GeoDetic Datum
#-----------------------------------------------------------------------------
~PARAMETER INFORMATION
#MNEM.UNIT    VALUE                      DESCRIPTION
#---- -----   --------------------       ------------------------
RUN  .          1                        :RUN NUMBER
PDAT .        MSL                        :Permanent Datum
EPD  .M           0.000000               :Elevation of Permanent Datum above Mean Sea Level
EPD  .M           0.000000               :Elevation of tool zero above Mean Sea Level
LMF  .          DF                       :Logging Measured From (Name of Logging Elevation Reference)
APD  .M          10.040000               :Elevation of Depth Reference (LMF) above Permanent Datum
#-----------------------------------------------------------------------------
~CURVE INFORMATION
#MNEM.UNIT   API CODE                                  DESCRIPTION
#---- -----  --------                                  -----------------------
DEPT .F                                                :DEPTH (BOREHOLE) {F10.1}
LLD  .OHMM                                             :DEEP RESISTIVITY {F13.4}
LLS  .OHMM                                             :SHALLOW RESISTIVITY {F13.4}
DT   .US/F                                             :Delta-T {F13.4}
SP   .MV                                               :SP Shifted {F13.4}
MSFL .OHMM                                             :MSFL RESISTIVITY {F13.4}
GR   .GAPI                                             :Gamma Ray {F13.4}
NPHI .V/V                                              :Thermal Neutron Porosity (Ratio Method) {F13.4}
DRHO .G/C3                                             :Bulk Density Correction {F13.4}
PEF  .                                                 :Photoelectric Factor {F13.4}
RHOB .G/C3                                             :Bulk Density {F13.4}
CALI .IN                                               :Caliper {F13.4}
#-----------------------------------------------------------------------------
# 
#     DEPT        LLD          LLS          DT           SP           MSFL         GR           NPHI         DRHO         PEF          RHOB         CALI
#
~A  
# ...
    8517.5       5.6316       5.3505      82.7000    -537.0625       5.3170     103.0296       0.1758       0.0542       4.3571       2.7036      13.2799
    8517.0       4.9605       4.7549      79.0000    -537.0625       5.3068     107.9719       0.1750       0.0387       4.1870       2.6855      13.3859
    8516.5       4.0245       4.0090      73.8000    -537.0625       4.0057     113.4052       0.1799       0.0356       4.4405       2.6855      13.5517
    8516.0       3.9246       3.9083      65.6000    -537.0625       3.5698     114.3728       0.2112       0.0206       4.3392       2.6648      13.7300
    8515.5       4.8436       4.3055      61.0000    -537.0625       3.3399     109.6977       0.2168       0.0282       4.3654       2.6869      13.7493
    8515.0       6.2348       5.1875      57.1000    -537.0625       3.1630     106.3583       0.2081       0.0328       4.3959       2.7171      13.6503
    8514.5       8.4747       6.9861      55.3000    -537.0625       5.3239      97.2276       0.1501       0.0571       4.7012       2.7660      13.2749
    8514.0      15.0613      11.3326      56.0000    -537.0625       6.1345      85.7848       0.0864       0.0673       5.2575       2.7743      13.0007
    8513.5      37.0867      22.6315      58.4000    -537.0625      10.6426      74.9620       0.0356       0.0679       5.4620       2.7396      12.8203
    8513.0      58.3071      29.3302      58.1000    -537.0625      17.9520      65.4933       0.0164       0.0621       5.5573       2.7095      12.5534
    8512.5      37.8807      20.8829      58.6000    -537.0625      22.2412      61.9654       0.0129       0.0716       5.5592       2.7330      12.5199
    8512.0      20.9893      13.3560      60.0000    -537.0625      21.3209      66.2430       0.0178       0.0645       5.3993       2.7617      12.8697
    8511.5      18.2563      12.2868      59.4000    -537.0625      19.6706      71.5861       0.0363       0.0593       5.4481       2.7996      12.9636
    8511.0      16.8214      11.8314      59.5000    -537.0625       5.7360      76.5385       0.0448       0.0472       5.0344       2.7936      13.1449
    8510.5      16.9320      12.1862      60.9000    -537.0625      10.5703      74.7895       0.0528       0.0504       4.7997       2.7740      13.3439
    8510.0      16.8881      12.1746      62.9000    -537.0625      22.0908      73.4660       0.0636       0.0417       4.8154       2.7162      13.3919
    8509.5      13.9608       9.5983      65.0000    -537.0625      10.1850      71.4624       0.0974       0.0402       5.2845       2.6594      13.4763
    8509.0      11.9044       8.0670      67.0000    -537.0625       2.1660      71.2078       0.1143       0.0295       5.4633       2.6148      13.4905
    8508.5       9.2834       6.7880      68.7000    -537.0625       3.6941      67.6819       0.1140       0.0409       5.2397       2.6109      13.4729
    8508.0       8.3095       6.1235      69.2000    -537.0625       2.8066      64.0754       0.1175       0.0564       5.3882       2.6251      13.4287
    8507.5       7.8720       6.0514      68.4000    -537.0625       1.7874      61.7934       0.1333       0.0832       5.5092       2.6313      13.3097
    8507.0       8.1167       6.2396      70.4000    -537.0625       1.0913      63.8492       0.1466       0.1097       5.4307       2.6297      13.1981
    8506.5       8.1746       6.1986      70.4000    -537.0625       1.3734      64.7739       0.1310       0.1086       5.4038       2.5727      13.1911
    8506.0       8.3129       6.2417      73.7000    -537.0625       2.7337      65.3667       0.1197       0.0979       5.7376       2.5652      13.1861
    8505.5       8.1120       6.2135      75.8000    -536.8750       2.0811      62.2729       0.1064       0.0818       5.2641       2.5800      13.2654
    8505.0       7.3198       5.7445      73.8000    -536.8750       2.5366      64.1533       0.1103       0.0661       4.7530       2.6269      13.5482
    8504.5       7.0259       5.4631      68.4000    -536.5000       2.9568      60.8497       0.1316       0.0276       4.2555       2.6133      13.6484
    8504.0       6.8502       5.1399      63.3000    -536.1875       3.4045      64.7334       0.1640       0.0143       4.1997       2.5943      13.6983
    8503.5       6.8753       4.9374      60.8000    -536.0625       1.9005      68.4506       0.1977       0.0613       4.2955       2.6525      13.7379
    8503.0       8.9209       6.0662      59.3000    -536.6875       2.8898      78.2521       0.2135       0.1025       4.2583       2.6942      13.6785
    8502.5      11.4510       7.6363      58.2000    -536.0000       3.4986      77.7717       0.1919       0.1349       5.0682       2.7283      13.2831
    8502.0      14.5464       9.3612      56.9000    -536.5000       1.0473      67.9019       0.1424       0.1571       5.5737       2.7252      12.8598
    8501.5      19.9587      12.3390      56.8000    -536.6250       6.0871      55.4794       0.0641       0.1490       6.7042       2.6896      12.5533
    8501.0      28.5894      16.7799      58.0000    -536.6250      18.5536      46.1708       0.0174       0.1208       7.0324       2.6658      12.3950
    8500.5      28.8290      17.1389      60.0000    -535.6250       9.4160      45.2439       0.0063       0.0906       6.8845       2.6522      12.5432
    8500.0      21.9966      14.1723      58.3000    -537.1250      10.3999      39.7673       0.0074       0.0532       6.4855       2.6489      12.7609
    8499.5      20.0912      13.2638      58.3000    -536.7500       8.0405      38.6300       0.0104       0.0131       6.3992       2.6180      12.9570
    8499.0      19.9430      13.2890      58.9000    -537.1250       6.8497      35.8249       0.0138       0.0090       6.3469       2.6163      13.0477
    8498.5      20.8325      13.7629      61.7000    -535.9375       7.9571      41.4265       0.0170       0.0068       6.4365       2.6193      13.0577
    8498.0      23.0459      14.9309      61.2000    -536.3750       6.4743      44.7310       0.0220       0.0068       6.1102       2.6318      13.1071
    8497.5      21.8887      14.0857      64.8000    -536.1875       7.7718      47.1633       0.0296       0.0195       6.3998       2.6609      13.1146
    8497.0      18.8503      12.5638      65.5000    -536.5625      12.0803      47.4216       0.0365       0.0513       5.9883       2.6918      13.1106
    8496.5      15.6830      10.0884      63.9000    -536.5625       9.8576      47.2881       0.0550       0.0887       6.0066       2.7082      13.0427
    8496.0      12.9982       8.2193      66.2000    -536.1875       4.2908      51.5152       0.0738       0.0944       5.9045       2.6591      12.9464
    8495.5      11.6218       7.2792      70.7000    -536.3750       2.6781      52.0262       0.0826       0.0913       6.1357       2.6276      12.8695
    8495.0      12.0198       7.8192      74.9000    -536.5625       2.5265      52.2851       0.0791       0.0811       5.8911       2.6273      12.8326
    8494.5      11.8905       7.3516      86.6000    -537.4375       3.3238      50.0166       0.0755       0.0761       5.5562       2.6939      12.9711
    8494.0       8.3607       5.4525      94.5000    -538.2500       4.4007      52.2940       0.1071       0.0553       4.7560       2.7361      13.3412
    8493.5       4.6198       3.3288      94.9000    -539.0625      11.7572      64.3177       0.1823       0.0419       4.3184       2.7541      13.4262
    8493.0       2.9638       2.2366      95.6000    -540.3125       4.1831      89.2462       0.2826       0.0395       3.7496       2.7358      13.5959
    8492.5       2.3929       1.8358      95.9000    -541.2500       2.2692     107.1409       0.3445       0.0398       3.8466       2.7209      13.6315
    8492.0       2.1961       1.7014      94.6000    -542.1250       2.1653     117.5544       0.3719       0.0274       3.8544       2.6832      13.6322
