~VERSION INFORMATION
VERS.           2.0   :CWLS Log ASCII Standard - VERSION 2.0
WRAP.           NO    :One Line per depth step
PROD.  Schlumberger   :LAS Producer
PROG.  DLIS to ASCII 13C0-300                          :LAS Program name and version
CREA.        2011/08/08 09:00                          :LAS Creation date {YYYY/MM/DD hh:mm}
SOURCE.     DLL_SONIC_MSFL_CNL_033PUP.DLIS             :DLIS File Name
FILE-ID.     DLL_SONIC_MSFL_CNL_033PUP                 :File Identification Number
#--------------------------------------------------
~WELL INFORMATION
#MNEM.UNIT      DATA             DESCRIPTION
#---- ------ --------------   -----------------------------
STRT .F         8621.5       :START DEPTH     
STOP .F         6875.5       :STOP DEPTH     
STEP .F           -0.5       :STEP     
NULL .          -999.25      :NULL VALUE
COMP .        PT Pertamina EP Region Jawa              :COMPANY
WELL .        MLD-05/ MLD-B1                           :WELL
FLD  .        Melandong                                :FIELD
LOC  .                                                 :LOCATION
CNTY .        MSH-2000                                 :COUNTY
STAT .        West Java                                :STATE
CTRY .        Indonesia                                :COUNTRY
API  .                                                 :API NUMBER
UWI  .                                                 :UNIQUE WELL ID
DATE .        07-Aug-2011                              :LOG DATE {DD-MMM-YYYY}
SRVC .        Schlumberger                             :SERVICE COMPANY
LATI .DEG                                              :LATITUDE
LONG .DEG                                              :LONGITUDE
GDAT .                                                 :GeoDetic Datum
#-----------------------------------------------------------------------------
~PARAMETER INFORMATION
#MNEM.UNIT    VALUE                      DESCRIPTION
#---- -----   --------------------       ------------------------
RUN  .          1                        :RUN NUMBER
PDAT .        MSL                        :Permanent Datum
EPD  .M           0.000000               :Elevation of Permanent Datum above Mean Sea Level
EPD  .M           0.000000               :Elevation of tool zero above Mean Sea Level
LMF  .          DF                       :Logging Measured From (Name of Logging Elevation Reference)
APD  .M          10.040000               :Elevation of Depth Reference (LMF) above Permanent Datum
#-----------------------------------------------------------------------------
~CURVE INFORMATION
#MNEM.UNIT   API CODE                                  DESCRIPTION
#---- -----  --------                                  -----------------------
DEPT .F                                                :DEPTH (BOREHOLE) {F10.1}
LLD  .OHMM                                             :DEEP RESISTIVITY {F13.4}
LLS  .OHMM                                             :SHALLOW RESISTIVITY {F13.4}
DT   .US/F                                             :Delta-T {F13.4}
SP   .MV                                               :SP Shifted {F13.4}
MSFL .OHMM                                             :MSFL RESISTIVITY {F13.4}
GR   .GAPI                                             :Gamma Ray {F13.4}
NPHI .V/V                                              :Thermal Neutron Porosity (Ratio Method) {F13.4}
DRHO .G/C3                                             :Bulk Density Correction {F13.4}
PEF  .                                                 :Photoelectric Factor {F13.4}
RHOB .G/C3                                             :Bulk Density {F13.4}
CALI .IN                                               :Caliper {F13.4}
#-----------------------------------------------------------------------------
# 
#     DEPT        LLD          LLS          DT           SP           MSFL         GR           NPHI         DRHO         PEF          RHOB         CALI
#
~A  
# ...
    7581.5       1.2292       0.8921     104.5000    -547.0625       1.3755      96.9603       0.2988       0.0392       3.4141       2.4982      14.6687
    7581.0       1.1569       0.8868     103.0000    -547.0000       1.3991      96.8102       0.2943       0.0382       3.2198       2.5028      14.7950
    7580.5       1.2368       0.8881     102.2000    -547.1875       1.3835      92.6380       0.2934       0.0341       3.2629       2.4975      14.7916
    7580.0       1.3130       0.8948     101.8000    -547.2500       1.4239      98.7793       0.2904       0.0254       3.3840       2.4896      14.6728
    7579.5       1.2707       0.9188     102.0000    -547.3750       1.4129      97.9783       0.2765       0.0148       3.4099       2.4842      14.4178
    7579.0       1.2525       0.9383     102.6000    -547.1250       1.4742      98.1960       0.2947       0.0116       3.4710       2.4870      14.1411
    7578.5       1.3607       0.9462     104.1000    -547.0625       1.5239      91.3111       0.3009       0.0079       3.4510       2.4854      13.9173
    7578.0       1.4259       0.9496     104.5000    -546.9375       1.6958      88.2699       0.2939       0.0062       3.4807       2.4853      13.8541
    7577.5       1.3195       0.9408     104.0000    -546.9375       1.5241      92.6071       0.3078       0.0139       3.3394       2.4890      13.8764
    7577.0       1.2076       0.9190     104.2000    -546.8750       1.4318      94.0182       0.2969       0.0282       3.3542       2.5012      13.9487
    7576.5       1.2382       0.9010     103.8000    -547.0000       1.3905      99.5961       0.2984       0.0375       3.3312       2.4934      14.0593
    7576.0       1.3384       0.9056     103.2000    -547.0000       1.3400      96.1249       0.2810       0.0446       3.3882       2.4988      14.1955
    7575.5       1.2433       0.9070     102.9000    -547.0000       1.3154      97.5935       0.2720       0.0562       3.3454       2.5099      14.1856
    7575.0       1.1910       0.9150     102.4000    -546.8125       1.3519      95.5930       0.2862       0.0423       3.3898       2.5019      14.1076
    7574.5       1.2529       0.9182     101.6000    -546.6875       1.3807      92.2408       0.2789       0.0373       3.3456       2.4962      13.9432
    7574.0       1.3485       0.9375     101.7000    -546.6875       1.4005      87.3010       0.2863       0.0328       3.4697       2.4908      13.8425
    7573.5       1.2435       0.9527     100.8000    -546.6875       1.3835      84.4953       0.2769       0.0323       3.4976       2.4997      13.7062
    7573.0       1.2537       0.9885     100.9000    -546.6875       1.3925      84.9781       0.2878       0.0258       3.4298       2.4947      13.5638
    7572.5       1.3522       1.0046      99.4000    -546.4375       1.4651      83.5095       0.2818       0.0301       3.2595       2.5008      13.5626
    7572.0       1.3788       1.0256      98.9000    -546.4375       1.4779      81.7739       0.2692       0.0254       3.2021       2.4918      13.6225
    7571.5       1.2910       1.0408      96.9000    -546.4375       1.5175      83.4417       0.2623       0.0250       3.2777       2.4922      13.6432
    7571.0       1.3170       1.0490      94.7000    -546.4375       1.5811      89.4334       0.2517       0.0330       3.3112       2.4998      13.7255
    7570.5       1.3881       1.0678      91.4000    -546.1875       1.4849      91.0355       0.2552       0.0336       3.3500       2.4924      13.7928
    7570.0       1.4197       1.0775      86.6000    -546.1250       1.4787      89.4334       0.2361       0.0392       3.3330       2.4942      13.8181
    7569.5       1.3911       1.1041      80.4000    -545.6875       1.5924      90.4007       0.2250       0.0432       3.5752       2.5044      13.8096
    7569.0       1.4650       1.2238      77.1000    -545.6250       1.6596      92.4474       0.1924       0.0535       3.7098       2.5422      13.7107
    7568.5       1.6480       1.4344      75.1000    -545.4375       1.9225      90.7257       0.1649       0.0466       3.9338       2.5563      13.4872
    7568.0       1.9356       1.6843      72.7000    -545.3125       2.8406      89.3900       0.1356       0.0482       4.0666       2.5660      13.1962
    7567.5       2.3148       1.9991      70.8000    -545.1250       3.0581      81.4927       0.1224       0.0520       4.2812       2.5856      13.0627
    7567.0       2.9117       2.4294      70.7000    -544.9375       3.3629      78.1655       0.1081       0.0476       4.3741       2.5912      13.0365
    7566.5       3.7364       3.0361      69.4000    -544.6875       4.1416      70.5230       0.0857       0.0427       4.6436       2.6124      13.0898
    7566.0       5.2365       3.9021      69.0000    -544.6875       6.0211      74.7996       0.0639       0.0409       4.6665       2.6136      13.2211
    7565.5       6.6973       4.9843      68.4000    -544.4375       6.8258      73.8523       0.0452       0.0389       5.0077       2.6304      13.3597
    7565.0       7.7161       5.7823      67.2000    -544.2500      11.2401      74.5549       0.0420       0.0262       4.7076       2.6175      13.4488
    7564.5       8.3140       6.3070      66.9000    -544.1875      11.3081      70.5337       0.0480       0.0188       4.5371       2.6150      13.4411
    7564.0       8.7385       6.8116      67.5000    -544.0000       9.6477      67.4614       0.0480       0.0249       4.4726       2.6269      13.3597
    7563.5       8.7685       6.8589      67.7000    -543.8750       7.9747      63.9825       0.0468       0.0248       4.5589       2.6374      13.2285
    7563.0       8.8301       7.0828      68.9000    -543.6875      10.9649      62.7988       0.0433       0.0291       4.4617       2.6418      13.0551
    7562.5       9.3592       7.4820      68.9000    -543.5000      10.8878      65.6039       0.0480       0.0323       4.4964       2.6365      12.8549
    7562.0       9.3961       7.4889      69.2000    -543.3125      12.1929      67.0732       0.0485       0.0328       4.4338       2.6305      12.7131
    7561.5       9.3925       7.4202      69.2000    -543.3750      11.4103      66.0980       0.0471       0.0303       4.4906       2.6249      12.6595
    7561.0       9.2178       7.2890      69.0000    -543.2500      11.3506      66.1096       0.0454       0.0310       4.4049       2.6213      12.7138
    7560.5       8.5436       7.1241      68.4000    -543.2500       8.8115      66.4021       0.0451       0.0264       4.5315       2.6186      12.8245
    7560.0       8.3361       6.8752      68.2000    -543.0000       8.6305      66.7020       0.0474       0.0256       4.4813       2.6194      12.9415
    7559.5       8.0115       6.8338      69.0000    -542.8750       9.2639      72.4341       0.0430       0.0343       4.3635       2.6417      13.1214
    7559.0       7.9771       6.7127      69.4000    -542.8125       9.4308      74.4249       0.0461       0.0352       4.1498       2.6393      13.2828
    7558.5       7.6636       6.6891      68.9000    -542.9375       9.2639      76.6751       0.0442       0.0395       4.4012       2.6501      13.3770
    7558.0       7.4700       6.6982      68.2000    -542.8125       9.3407      72.4007       0.0508       0.0427       4.3819       2.6506      13.3669
    7557.5       7.5603       6.5357      69.1000    -543.0000       9.5071      70.6517       0.0603       0.0525       4.3749       2.6597      13.2935
    7557.0       7.3476       6.4365      68.7000    -542.9375       8.6193      70.9381       0.0730       0.0621       4.2562       2.6627      13.1023
    7556.5       7.1064       6.3084      67.8000    -542.8125       8.7373      66.6512       0.0847       0.0622       4.3323       2.6450      12.9909
    7556.0       6.5877       5.8428      68.6000    -542.8750       7.5457      70.6585       0.0808       0.0675       4.4744       2.6277      12.9650
