~VERSION INFORMATION
VERS.           2.0   :CWLS Log ASCII Standard - VERSION 2.0
WRAP.           NO    :One Line per depth step
PROD.  Schlumberger   :LAS Producer
PROG.  DLIS to ASCII 13C0-300                          :LAS Program name and version
CREA.        2011/08/08 09:00                          :LAS Creation date {YYYY/MM/DD hh:mm}
SOURCE.     DLL_SONIC_MSFL_CNL_033PUP.DLIS             :DLIS File Name
FILE-ID.     DLL_SONIC_MSFL_CNL_033PUP                 :File Identification Number
#--------------------------------------------------
~WELL INFORMATION
#MNEM.UNIT      DATA             DESCRIPTION
#---- ------ --------------   -----------------------------
STRT .F         8621.5       :START DEPTH     
STOP .F         6875.5       :STOP DEPTH     
STEP .F           -0.5       :STEP     
NULL .          -999.25      :NULL VALUE
COMP .        PT Pertamina EP Region Jawa              :COMPANY
WELL .        MLD-05/ MLD-B1                           :WELL
FLD  .        Melandong                                :FIELD
LOC  .                                                 :LOCATION
CNTY .        MSH-2000                                 :COUNTY
STAT .        West Java                                :STATE
CTRY .        Indonesia                                :COUNTRY
API  .                                                 :API NUMBER
UWI  .                                                 :UNIQUE WELL ID
DATE .        07-Aug-2011                              :LOG DATE {DD-MMM-YYYY}
SRVC .        Schlumberger                             :SERVICE COMPANY
LATI .DEG                                              :LATITUDE
LONG .DEG                                              :LONGITUDE
GDAT .                                                 :GeoDetic Datum
#-----------------------------------------------------------------------------
~PARAMETER INFORMATION
#MNEM.UNIT    VALUE                      DESCRIPTION
#---- -----   --------------------       ------------------------
RUN  .          1                        :RUN NUMBER
PDAT .        MSL                        :Permanent Datum
EPD  .M           0.000000               :Elevation of Permanent Datum above Mean Sea Level
EPD  .M           0.000000               :Elevation of tool zero above Mean Sea Level
LMF  .          DF                       :Logging Measured From (Name of Logging Elevation Reference)
APD  .M          10.040000               :Elevation of Depth Reference (LMF) above Permanent Datum
#-----------------------------------------------------------------------------
~CURVE INFORMATION
#MNEM.UNIT   API CODE                                  DESCRIPTION
#---- -----  --------                                  -----------------------
DEPT .F                                                :DEPTH (BOREHOLE) {F10.1}
LLD  .OHMM                                             :DEEP RESISTIVITY {F13.4}
LLS  .OHMM                                             :SHALLOW RESISTIVITY {F13.4}
DT   .US/F                                             :Delta-T {F13.4}
SP   .MV                                               :SP Shifted {F13.4}
MSFL .OHMM                                             :MSFL RESISTIVITY {F13.4}
GR   .GAPI                                             :Gamma Ray {F13.4}
NPHI .V/V                                              :Thermal Neutron Porosity (Ratio Method) {F13.4}
DRHO .G/C3                                             :Bulk Density Correction {F13.4}
PEF  .                                                 :Photoelectric Factor {F13.4}
RHOB .G/C3                                             :Bulk Density {F13.4}
CALI .IN                                               :Caliper {F13.4}
#-----------------------------------------------------------------------------
# 
#     DEPT        LLD          LLS          DT           SP           MSFL         GR           NPHI         DRHO         PEF          RHOB         CALI
#
~A  
# ...
    7139.5       3.9167       3.4263      84.1000    -526.4375       6.6918      74.8553       0.1620       0.0250       3.6249       2.5297      13.6513
    7139.0       3.9884       3.4232      85.7000    -526.5625       5.4533      74.9888       0.1700       0.0145       3.3540       2.4986      13.7226
    7138.5       3.3825       3.1824      84.8000    -526.5000       4.4431      76.0432       0.1770       0.0182       3.3581       2.4914      13.7312
    7138.0       3.2763       2.9595      84.4000    -526.5000       3.2020      82.2266       0.1846       0.0174       3.2736       2.4953      13.7280
    7137.5       3.1702       2.7996      83.4000    -526.3750       3.2307      80.4910       0.1892       0.0124       3.4229       2.5016      13.6711
    7137.0       2.9498       2.7565      82.2000    -526.5625       3.1096      78.6228       0.1902       0.0119       3.5577       2.5189      13.5280
    7136.5       3.1452       2.8776      83.4000    -526.6875       3.0536      78.8905       0.1713       0.0147       3.4802       2.5245      13.3869
    7136.0       3.3694       2.9878      84.7000    -526.7500       3.1166      76.2204       0.1682       0.0210       3.3767       2.5299      13.2679
    7135.5       3.3399       3.0203      85.8000    -526.8125       3.9316      80.2235       0.1763       0.0228       3.1623       2.5201      13.2558
    7135.0       3.3094       3.0247      86.2000    -527.0000       5.1013      80.9050       0.2001       0.0347       3.1581       2.5281      13.2605
    7134.5       3.3632       2.9125      84.5000    -526.9375       3.3931      84.5375       0.1942       0.0411       3.1005       2.5254      13.3644
    7134.0       3.0767       2.7785      82.6000    -526.9375       3.0842      84.7154       0.1881       0.0332       3.1426       2.5204      13.4040
    7133.5       2.9600       2.7658      81.3000    -527.0000       3.1450      82.8453       0.1672       0.0223       3.3098       2.5255      13.4315
    7133.0       3.0635       2.8346      81.0000    -527.1250       3.1450      80.2935       0.1662       0.0237       3.3717       2.5428      13.4785
    7132.5       3.4065       3.0110      82.6000    -527.2500       3.2509      77.7800       0.1671       0.0190       3.5408       2.5524      13.5202
    7132.0       3.4852       3.1964      84.4000    -527.2500       3.7319      76.7245       0.1842       0.0169       3.1772       2.5337      13.5267
    7131.5       3.5799       3.2275      84.7000    -527.2500       6.4996      79.9304       0.1940       0.0146       3.2032       2.5229      13.5215
    7131.0       3.6399       3.1299      84.5000    -527.3750       4.2131      82.2954       0.1861       0.0187       3.0200       2.5178      13.4475
    7130.5       3.3482       2.9960      85.1000    -527.6250       3.2909      85.2356       0.1679       0.0217       3.1000       2.5298      13.3820
    7130.0       3.1092       2.9116      84.9000    -527.7500       3.1414      84.9413       0.1670       0.0314       3.0559       2.5425      13.3743
    7129.5       3.2962       2.9355      86.1000    -527.6250       3.1237      85.8763       0.1735       0.0182       3.0624       2.5301      13.3768
    7129.0       3.3950       2.9819      85.6000    -527.5000       3.6196      86.1289       0.1729       0.0304       2.9992       2.5328      13.4127
    7128.5       3.1957       2.9652      84.7000    -527.6875       3.5183      85.4881       0.1741       0.0297       2.9440       2.5185      13.4785
    7128.0       3.1999       2.8701      84.0000    -527.8750       3.4916      85.1024       0.1705       0.0239       3.0436       2.5034      13.5177
    7127.5       3.2219       2.8492      81.6000    -528.0625       3.3119      83.0988       0.1647       0.0217       3.0829       2.5079      13.5672
    7127.0       3.1067       2.8389      79.8000    -528.1250       3.2244      82.0434       0.1641       0.0321       3.1186       2.5421      13.5821
    7126.5       3.0067       2.8544      80.3000    -528.1875       3.2650      76.8313       0.1599       0.0341       3.1700       2.5767      13.5831
    7126.0       3.4216       2.9618      79.7000    -528.2500       3.4741      75.8963       0.1733       0.0313       3.2504       2.5852      13.5729
    7125.5       3.4038       3.0529      79.8000    -528.5000       3.7185      77.0991       0.1803       0.0322       3.3231       2.5711      13.4790
    7125.0       3.1518       3.0277      79.7000    -528.5000       5.6732      79.8262       0.1845       0.0279       3.3459       2.5590      13.3743
    7124.5       3.2807       2.9828      81.6000    -528.9375       5.5929      85.8371       0.1856       0.0328       3.3988       2.5640      13.3372
    7124.0       3.4183       2.9768      82.5000    -528.8125       3.4324      88.4126       0.1702       0.0382       3.3152       2.5641      13.3745
    7123.5       3.0671       2.8842      82.5000    -528.9375       3.4931      88.4781       0.1700       0.0432       3.3062       2.5570      13.3770
    7123.0       3.0667       2.9048      80.4000    -529.1875       5.4283      82.6113       0.1611       0.0495       3.2068       2.5580      13.3795
    7122.5       3.4515       3.0022      77.7000    -529.3125       3.8195      80.3031       0.1481       0.0542       3.2712       2.5775      13.3817
    7122.0       3.3852       3.1012      76.7000    -529.3125       3.4858      79.5016       0.1391       0.0610       3.2732       2.6001      13.4657
    7121.5       3.4271       3.2166      75.8000    -529.5625       3.7967      77.6335       0.1264       0.0492       3.4515       2.6061      13.4856
    7121.0       3.6757       3.2987      76.4000    -529.7500       4.8967      77.4860       0.1316       0.0451       3.5989       2.6276      13.4881
    7120.5       3.7661       3.3409      77.9000    -529.8125       5.5898      79.4896       0.1380       0.0359       3.6040       2.6256      13.4816
    7120.0       3.6894       3.4020      81.4000    -529.9375       6.7025      84.1523       0.1449       0.0359       3.5563       2.6058      13.4556
    7119.5       3.5098       3.3885      84.7000    -530.0625       7.4065      87.5073       0.1608       0.0199       3.4885       2.5551      13.4040
    7119.0       3.7090       3.3821      86.3000    -530.3125       8.1306      86.9730       0.1718       0.0159       3.3948       2.5221      13.3438
    7118.5       3.5699       3.2892      86.4000    -530.4375       5.9370      88.8431       0.1879       0.0183       3.3138       2.5183      13.3394
    7118.0       3.2818       3.1339      85.2000    -530.8125       4.1190      84.9674       0.1866       0.0190       3.0969       2.5178      13.3592
    7117.5       2.9868       2.9363      84.7000    -530.7500       3.2935      84.1659       0.1884       0.0159       3.0327       2.5187      13.3941
    7117.0       2.9737       2.7911      84.1000    -531.0000       3.3278      81.0937       0.1815       0.0177       3.0651       2.5259      13.4127
    7116.5       2.9287       2.8071      82.5000    -531.0625       3.2237      82.9647       0.1824       0.0193       3.1296       2.5411      13.4482
    7116.0       2.8947       2.8457      83.2000    -531.3750       3.2940      87.5063       0.1635       0.0195       3.0062       2.5404      13.4584
    7115.5       2.9628       2.9095      81.1000    -531.6250       3.5311      92.3150       0.1482       0.0246       3.2524       2.5480      13.4525
    7115.0       3.1145       2.9101      80.0000    -531.9375       3.7271      91.6468       0.1380       0.0264       3.7636       2.5599      13.4037
    7114.5       2.9104       2.8457      76.3000    -532.0625       3.8265      89.6582       0.1429       0.0358       4.3923       2.6041      13.2679
    7114.0       2.7536       2.7596      74.1000    -532.3750       3.4367      77.6364       0.1328       0.0502       4.5815       2.6474      13.1530
