~VERSION INFORMATION
VERS.           2.0   :CWLS Log ASCII Standard - VERSION 2.0
WRAP.           NO    :One Line per depth step
PROD.  Schlumberger   :LAS Producer
PROG.  DLIS to ASCII 13C0-300                          :LAS Program name and version
CREA.        2011/08/08 09:00                          :LAS Creation date {YYYY/MM/DD hh:mm}
SOURCE.     DLL_SONIC_MSFL_CNL_033PUP.DLIS             :DLIS File Name
FILE-ID.     DLL_SONIC_MSFL_CNL_033PUP                 :File Identification Number
#--------------------------------------------------
~WELL INFORMATION
#MNEM.UNIT      DATA             DESCRIPTION
#---- ------ --------------   -----------------------------
STRT .F         8621.5       :START DEPTH     
STOP .F         6875.5       :STOP DEPTH     
STEP .F           -0.5       :STEP     
NULL .          -999.25      :NULL VALUE
COMP .        PT Pertamina EP Region Jawa              :COMPANY
WELL .        MLD-05/ MLD-B1                           :WELL
FLD  .        Melandong                                :FIELD
LOC  .                                                 :LOCATION
CNTY .        MSH-2000                                 :COUNTY
STAT .        West Java                                :STATE
CTRY .        Indonesia                                :COUNTRY
API  .                                                 :API NUMBER
UWI  .                                                 :UNIQUE WELL ID
DATE .        07-Aug-2011                              :LOG DATE {DD-MMM-YYYY}
SRVC .        Schlumberger                             :SERVICE COMPANY
LATI .DEG                                              :LATITUDE
LONG .DEG                                              :LONGITUDE
GDAT .                                                 :GeoDetic Datum
#-----------------------------------------------------------------------------
~PARAMETER INFORMATION
#MNEM.UNIT    VALUE                      DESCRIPTION
#---- -----   --------------------       ------------------------
RUN  .          1                        :RUN NUMBER
PDAT .        MSL                        :Permanent Datum
EPD  .M           0.000000               :Elevation of Permanent Datum above Mean Sea Level
EPD  .M           0.000000               :Elevation of tool zero above Mean Sea Level
LMF  .          DF                       :Logging Measured From (Name of Logging Elevation Reference)
APD  .M          10.040000               :Elevation of Depth Reference (LMF) above Permanent Datum
#-----------------------------------------------------------------------------
~CURVE INFORMATION
#MNEM.UNIT   API CODE                                  DESCRIPTION
#---- -----  --------                                  -----------------------
DEPT .F                                                :DEPTH (BOREHOLE) {F10.1}
LLD  .OHMM                                             :DEEP RESISTIVITY {F13.4}
LLS  .OHMM                                             :SHALLOW RESISTIVITY {F13.4}
DT   .US/F                                             :Delta-T {F13.4}
SP   .MV                                               :SP Shifted {F13.4}
MSFL .OHMM                                             :MSFL RESISTIVITY {F13.4}
GR   .GAPI                                             :Gamma Ray {F13.4}
NPHI .V/V                                              :Thermal Neutron Porosity (Ratio Method) {F13.4}
DRHO .G/C3                                             :Bulk Density Correction {F13.4}
PEF  .                                                 :Photoelectric Factor {F13.4}
RHOB .G/C3                                             :Bulk Density {F13.4}
CALI .IN                                               :Caliper {F13.4}
#-----------------------------------------------------------------------------
# 
#     DEPT        LLD          LLS          DT           SP           MSFL         GR           NPHI         DRHO         PEF          RHOB         CALI
#
~A  
# ...
    8283.5      22.5170      15.3108      66.3000    -543.6250      21.2115      61.2635       0.0317       0.0318       5.3973       2.6955      13.3306
    8283.0      18.5876      12.5290      68.3000    -543.5000      19.4011      65.0036       0.0439       0.0261       5.0741       2.6849      13.2641
    8282.5      15.3548      10.5674      72.7000    -543.9375      12.9578      66.6539       0.0480       0.0204       5.0658       2.6799      13.1239
    8282.0      14.2204       9.8923      82.8000    -544.1875       7.7806      65.3182       0.0474       0.0203       5.1499       2.6800      12.9934
    8281.5      10.9361       7.5318      91.9000    -544.5000      11.2704      66.5204       0.0406       0.0205       5.4555       2.6843      12.9538
    8281.0       6.2618       4.6405      95.7000    -544.5625      14.5526      67.7346       0.0523       0.0173       5.2680       2.6534      13.0428
    8280.5       3.7827       2.9174      89.8000    -544.6250       6.0041      70.1390       0.0847       0.0175       4.9011       2.6144      13.2207
    8280.0       2.5653       1.9949      84.6000    -544.7500       2.1898      76.5506       0.1612       0.0140       4.1953       2.5747      13.3397
    8279.5       1.9580       1.5487      84.0000    -544.8750       2.0553      76.6721       0.1993       0.0131       3.8842       2.5750      13.4460
    8279.0       2.0359       1.6094      89.2000    -545.0000       1.4181      77.1823       0.1879       0.0085       3.9658       2.6011      13.6084
    8278.5       2.4498       1.9244     101.9000    -545.1250       1.6760      73.6959       0.1375       0.0081       4.5432       2.6186      13.6365
    8278.0       2.4312       1.8948     108.7000    -545.1875       5.2731      76.9460       0.1591       0.0057       5.5290       2.6118      13.6393
    8277.5       1.9269       1.5636     110.1000    -545.2500       7.2238      83.7668       0.2343       0.0036       5.4500       2.5792      13.6117
    8277.0       1.6578       1.3227     103.2000    -545.1875       4.1385      89.5076       0.3146       0.0050       4.7360       2.5454      13.4905
    8276.5       1.3848       1.1748      98.2000    -545.1250       1.0015      94.3893       0.3496       0.0117       4.1796       2.5333      13.2752
    8276.0       1.3715       1.1435      91.6000    -544.9375       1.0546      97.4599       0.3605       0.0144       4.1424       2.5276      13.1492
    8275.5       1.4902       1.2713      89.5000    -544.9375       1.0973      93.9741       0.3101       0.0167       4.4755       2.5573      13.1294
    8275.0       1.7955       1.5177      88.7000    -544.8125       1.3303      93.9875       0.2730       0.0299       5.0029       2.6003      13.1493
    8274.5       2.2888       1.8986      89.9000    -544.2500       2.1021      94.7885       0.2388       0.0338       5.0816       2.6204      13.2112
    8274.0       2.8759       2.3681      90.0000    -543.9375       3.2082      94.1213       0.2628       0.0321       5.3079       2.6195      13.3248
    8273.5       3.4714       2.7834      87.6000    -543.5625       3.2082      92.7728       0.2629       0.0252       5.0349       2.6058      13.4127
    8273.0       3.6640       2.8782      85.1000    -543.3125       3.4799      93.0399       0.2694       0.0254       5.2945       2.6225      13.4331
    8272.5       3.6003       2.6802      80.6000    -543.1875       4.0487      96.5254       0.2533       0.0190       5.0051       2.6393      13.4342
    8272.0       3.3988       2.4682      74.5000    -542.6250       2.4475      96.7924       0.2465       0.0152       4.9123       2.6519      13.4163
    8271.5       3.3701       2.3476      68.6000    -542.5000       2.8192      89.4356       0.2230       0.0157       4.7018       2.6643      13.3271
    8271.0       4.3935       2.8492      62.7000    -542.2500       3.1474      79.4226       0.1864       0.0204       5.3035       2.6758      13.1418
    8270.5       6.2756       3.9055      63.0000    -541.8750       2.8778      69.1426       0.1250       0.0267       5.7668       2.6996      13.0657
    8270.0       8.9575       5.6209      64.2000    -541.5000       4.5748      61.5466       0.0696       0.0374       6.3074       2.7270      13.0576
    8269.5      15.5420       9.3008      63.9000    -541.1250      15.2168      58.2182       0.0420       0.0494       7.1696       2.7523      13.1394
    8269.0      23.6263      13.7668      64.6000    -540.5000      11.4172      53.6790       0.0383       0.0540       7.3337       2.7433      13.1568
    8268.5      23.7057      14.2591      63.9000    -540.0000      10.9574      53.4120       0.0402       0.0541       7.4078       2.6994      13.2059
    8268.0      20.3647      12.5700      65.8000    -539.7500       6.9940      55.5388       0.0508       0.0496       5.9824       2.6569      13.6344
    8267.5      16.6831      10.3103      67.2000    -539.5000       5.3307      60.0675       0.0555       0.0529       5.9591       2.6367      13.6760
    8267.0      14.0465       8.7179      70.5000    -539.2500       5.3444      54.8607       0.0692       0.0481       5.5611       2.6292      13.6389
    8266.5      11.9279       7.3615      72.4000    -539.0625       6.6653      48.4524       0.0753       0.0341       5.5200       2.6079      13.4834
    8266.0      10.2865       6.4209      70.0000    -539.0625       3.9807      44.1990       0.0856       0.0258       5.2519       2.5994      13.3397
    8265.5       9.0207       5.8102      69.5000    -539.1250       3.3862      45.2671       0.0899       0.0202       5.1743       2.5869      13.2135
    8265.0       7.9955       5.2362      65.5000    -538.9375       2.3544      45.0140       0.0994       0.0157       4.9539       2.5879      13.1616
    8264.5       8.0065       5.2441      63.1000    -539.2500       2.1314      49.1549       0.1055       0.0229       4.8352       2.6047      13.1319
    8264.0       9.5661       6.2227      66.0000    -540.0000       1.9283      50.7740       0.0886       0.0328       4.8355       2.6486      13.1318
    8263.5      11.2497       7.4261      75.6000    -540.2500       3.3332      55.7093       0.0621       0.0324       4.9051       2.6716      13.1294
    8263.0      11.9975       8.0525      83.4000    -541.0000       9.1512      56.9226       0.0415       0.0331       5.2238       2.6945      13.1886
    8262.5       8.6805       6.1852      93.3000    -540.9375      14.8618      71.0888       0.0593       0.0269       5.3430       2.6704      13.3448
    8262.0       4.8624       3.8418     100.0000    -541.6250      12.2263      79.5040       0.1111       0.0343       5.4913       2.6660      13.4089
    8261.5       2.8988       2.3513     103.1000    -542.3750       3.4437      91.6483       0.1933       0.0396       5.1257       2.6304      13.4062
    8261.0       1.9980       1.6890     104.8000    -542.8750       2.4437      96.2643       0.2552       0.0462       4.7771       2.5870      13.3889
    8260.5       1.4914       1.3845     103.5000    -543.4375       1.1562     105.8529       0.2942       0.0467       4.3162       2.5485      13.3026
    8260.0       1.3336       1.2756      97.9000    -543.7500       0.9957     104.8273       0.3024       0.0465       4.1477       2.5318      13.2087
    8259.5       1.3809       1.2865      92.7000    -543.7500       1.2367     102.1532       0.3114       0.0306       4.2040       2.5379      13.1392
    8259.0       1.5323       1.4000      84.2000    -544.1875       1.4999      95.6368       0.2936       0.0285       4.2926       2.5631      13.1095
    8258.5       1.7370       1.5379      76.3000    -544.3750       1.3917      86.0621       0.2574       0.0213       4.4690       2.5891      13.1122
    8258.0       1.9517       1.8135      73.3000    -544.3750       1.6729      77.2951       0.2032       0.0187       4.5477       2.6128      13.0971
