~VERSION INFORMATION
VERS.           2.0   :CWLS Log ASCII Standard - VERSION 2.0
WRAP.           NO    :One Line per depth step
PROD.  Schlumberger   :LAS Producer
PROG.  DLIS to ASCII 13C0-300                          :LAS Program name and version
CREA.        2011/08/08 09:00                          :LAS Creation date {YYYY/MM/DD hh:mm}
SOURCE.     DLL_SONIC_MSFL_CNL_033PUP.DLIS             :DLIS File Name
FILE-ID.     DLL_SONIC_MSFL_CNL_033PUP                 :File Identification Number
#--------------------------------------------------
~WELL INFORMATION
#MNEM.UNIT      DATA             DESCRIPTION
#---- ------ --------------   -----------------------------
STRT .F         8621.5       :START DEPTH     
STOP .F         6875.5       :STOP DEPTH     
STEP .F           -0.5       :STEP     
NULL .          -999.25      :NULL VALUE
COMP .        PT Pertamina EP Region Jawa              :COMPANY
WELL .        MLD-05/ MLD-B1                           :WELL
FLD  .        Melandong                                :FIELD
LOC  .                                                 :LOCATION
CNTY .        MSH-2000                                 :COUNTY
STAT .        West Java                                :STATE
CTRY .        Indonesia                                :COUNTRY
API  .                                                 :API NUMBER
UWI  .                                                 :UNIQUE WELL ID
DATE .        07-Aug-2011                              :LOG DATE {DD-MMM-YYYY}
SRVC .        Schlumberger                             :SERVICE COMPANY
LATI .DEG                                              :LATITUDE
LONG .DEG                                              :LONGITUDE
GDAT .                                                 :GeoDetic Datum
#-----------------------------------------------------------------------------
~PARAMETER INFORMATION
#MNEM.UNIT    VALUE                      DESCRIPTION
#---- -----   --------------------       ------------------------
RUN  .          1                        :RUN NUMBER
PDAT .        MSL                        :Permanent Datum
EPD  .M           0.000000               :Elevation of Permanent Datum above Mean Sea Level
EPD  .M           0.000000               :Elevation of tool zero above Mean Sea Level
LMF  .          DF                       :Logging Measured From (Name of Logging Elevation Reference)
APD  .M          10.040000               :Elevation of Depth Reference (LMF) above Permanent Datum
#-----------------------------------------------------------------------------
~CURVE INFORMATION
#MNEM.UNIT   API CODE                                  DESCRIPTION
#---- -----  --------                                  -----------------------
DEPT .F                                                :DEPTH (BOREHOLE) {F10.1}
LLD  .OHMM                                             :DEEP RESISTIVITY {F13.4}
LLS  .OHMM                                             :SHALLOW RESISTIVITY {F13.4}
DT   .US/F                                             :Delta-T {F13.4}
SP   .MV                                               :SP Shifted {F13.4}
MSFL .OHMM                                             :MSFL RESISTIVITY {F13.4}
GR   .GAPI                                             :Gamma Ray {F13.4}
NPHI .V/V                                              :Thermal Neutron Porosity (Ratio Method) {F13.4}
DRHO .G/C3                                             :Bulk Density Correction {F13.4}
PEF  .                                                 :Photoelectric Factor {F13.4}
RHOB .G/C3                                             :Bulk Density {F13.4}
CALI .IN                                               :Caliper {F13.4}
#-----------------------------------------------------------------------------
# 
#     DEPT        LLD          LLS          DT           SP           MSFL         GR           NPHI         DRHO         PEF          RHOB         CALI
#
~A  
# ...
    6905.5       2.9146       2.4718      85.1000    -529.1875       2.4938      85.6179       0.2067       0.0240       3.2267       2.4978      13.7471
    6905.0       2.7304       2.4903      82.1000    -529.3750       2.7265      84.9054       0.1954       0.0196       3.3090       2.4998      13.6591
    6904.5       2.9988       2.5937      85.5000    -529.6250       2.6947      82.7652       0.1956       0.0247       3.4372       2.5017      13.6494
    6904.0       3.0703       2.6291      85.5000    -529.8125       3.1096      86.9330       0.2025       0.0268       3.2500       2.5063      13.6066
    6903.5       2.9377       2.6347      86.3000    -530.2500       4.1897      79.3153       0.2039       0.0406       3.1979       2.5192      13.5831
    6903.0       2.9524       2.6255      87.5000    -530.5625       3.1934      81.3123       0.1969       0.0519       3.0983       2.5380      13.5986
    6902.5       2.9551       2.5110      85.6000    -531.0000       3.1581      80.3095       0.1914       0.0480       3.1018       2.5388      13.6591
    6902.0       2.7543       2.4247      83.4000    -531.3750       3.1533      87.7807       0.1949       0.0360       3.1368       2.5354      13.6544
    6901.5       2.5607       2.3388      83.9000    -531.8750       3.1971      85.2036       0.1820       0.0366       3.3524       2.5484      13.6728
    6901.0       2.5688       2.2674      82.9000    -532.4375       2.9705      84.6157       0.1898       0.0327       3.2976       2.5572      13.7343
    6900.5       2.5679       2.2458      86.9000    -532.7500       3.0202      84.3613       0.1924       0.0211       3.1673       2.5408      13.7413
    6900.0       2.4052       2.1985      88.5000    -533.2500       5.0701      86.3820       0.2190       0.0296       3.0697       2.5426      13.7475
    6899.5       2.3707       2.1772      88.6000    -533.5625       3.9391      86.2388       0.2279       0.0405       3.1835       2.5562      13.7285
    6899.0       2.4050       2.1186      89.7000    -534.0625       2.8011      85.4910       0.2273       0.0401       3.1650       2.5620      13.6740
    6898.5       2.1021       2.0062      89.0000    -534.3750       2.8326      87.2440       0.2224       0.0371       3.1826       2.5520      13.6066
    6898.0       2.1192       1.9424      89.0000    -534.7500       2.6635      88.2462       0.2191       0.0452       3.2115       2.5534      13.5032
    6897.5       2.1612       1.8979      87.4000    -534.9375       2.5490      91.2704       0.2343       0.0438       3.3521       2.5453      13.4263
    6897.0       2.0082       1.8750      85.3000    -535.3125       2.8688      91.5229       0.2334       0.0368       3.3384       2.5395      13.3491
    6896.5       1.9882       1.8793      84.9000    -535.6875       2.7592      92.3227       0.2129       0.0301       3.4286       2.5404      13.3359
    6896.0       2.1437       1.9016      85.0000    -536.0625       2.5127      89.0279       0.1925       0.0307       3.4891       2.5540      13.3862
    6895.5       2.1101       1.9368      86.9000    -536.3125       2.5928      90.1559       0.1861       0.0231       3.7424       2.5696      13.6884
    6895.0       2.0269       2.0022      89.6000    -536.4375       2.3592      92.1166       0.2052       0.0115       3.7053       2.5577      13.7064
    6894.5       2.0991       1.9393      91.1000    -536.7500       3.7777      95.5547       0.2262       0.0140       3.7337       2.5574      13.7095
    6894.0       2.0451       1.8610      90.7000    -537.1250       3.1642      91.1008       0.2400       0.0176       3.5722       2.5568      13.7121
    6893.5       1.8450       1.7830      89.4000    -537.6250       2.2097      88.0998       0.2472       0.0269       3.4829       2.5741      13.7090
    6893.0       1.7231       1.6964      89.8000    -537.8750       2.1974      86.6505       0.2430       0.0316       3.4101       2.5747      13.7095
    6892.5       1.8334       1.6895      91.4000    -538.1250       2.2091      84.9625       0.2354       0.0420       3.4614       2.5829      13.6538
    6892.0       1.8535       1.7027      91.2000    -538.3125       2.6773      90.1961       0.2267       0.0404       3.6362       2.5713      13.5270
    6891.5       1.7383       1.7070      90.3000    -538.5625       2.7229      86.4735       0.2157       0.0437       3.5917       2.5749      13.3862
    6891.0       1.8052       1.7333      90.2000    -538.6250       2.5775      85.3545       0.2145       0.0389       3.6205       2.5632      13.4399
    6890.5       1.9545       1.7533      88.0000    -538.8750       2.6550      81.3637       0.2063       0.0329       3.5612       2.5623      13.4710
    6890.0       1.8809       1.8320      87.9000    -538.9375       2.4214      84.2435       0.1951       0.0342       3.5365       2.5703      13.5496
    6889.5       1.8447       1.8610      87.5000    -539.0000       2.4140      89.4556       0.1966       0.0273       3.5063       2.5593      13.7651
    6889.0       2.0344       1.9483      87.4000    -539.0000       2.4497      89.0261       0.2008       0.0240       3.5361       2.5537      13.8340
    6888.5       2.2036       2.0084      87.6000    -539.0625       2.7048      86.1610       0.2038       0.0234       3.6640       2.5490      13.8234
    6888.0       2.1762       2.0202      86.6000    -539.1250       2.5815      80.6946       0.1877       0.0278       3.8995       2.5617      13.8102
    6887.5       2.1519       2.0548      85.1000    -539.1875       2.3632      78.8333       0.1865       0.0248       3.8108       2.5668      13.7678
    6887.0       2.0662       2.0534      84.8000    -538.8750       2.5506      80.3680       0.1904       0.0294       3.7520       2.5839      13.6326
    6886.5       2.1575       2.1052      84.5000    -538.9375       3.1255      82.0131       0.1912       0.0316       3.4177       2.5867      13.4551
    6886.0       2.4605       2.2284      83.9000    -539.0000       3.4126      83.6035       0.2007       0.0342       3.5051       2.5849      13.3173
    6885.5       2.5538       2.3117      84.6000    -538.8750       3.4931      81.3382       0.1931       0.0364       3.5325       2.5861      13.2670
    6885.0       2.5880       2.3732      84.3000    -539.0000       3.8874      80.9232       0.1959       0.0429       3.5183       2.5912      13.2617
    6884.5       2.6366       2.4392      85.9000    -538.9375       3.7504      80.4782       0.1829       0.0403       3.4022       2.5863      13.3571
    6884.0       2.5910       2.4779      87.4000    -538.6250       3.5393      80.0628       0.1897       0.0359       3.2783       2.5661      13.5664
    6883.5       2.5002       2.4314      88.0000    -538.6875       3.5859      84.4867       0.1911       0.0349       3.2401       2.5561      13.5641
    6883.0       2.4916       2.3753      88.4000    -538.8125       3.7052      87.0636       0.1951       0.0345       3.3682       2.5596      13.5585
    6882.5       2.4711       2.3084      88.1000    -538.6875       2.8058      90.4856       0.2017       0.0319       3.3319       2.5590      13.5297
    6882.0       2.4329       2.2192      86.8000    -538.9375       3.0865      91.1841       0.2203       0.0388       3.4783       2.5683      13.4688
    6881.5       2.4768       2.2159      86.7000    -538.8750       2.8067      89.4820       0.2377       0.0370       3.5182       2.5589      13.3679
    6881.0       2.4049       2.2564      86.5000    -538.6875       3.1569      88.1781       0.2542       0.0352       3.6872       2.5601      13.6331
    6880.5       2.3684       2.3156      83.8000    -538.6250       3.1751      84.3661       0.2431       0.0462       3.5822       2.5792      14.0838
    6880.0       2.4391       2.3576      84.2000    -538.6875       3.0329      84.3504       0.2420       0.0412       3.3460       2.5729      14.0122
