~VERSION INFORMATION
VERS.           2.0   :CWLS Log ASCII Standard - VERSION 2.0
WRAP.           NO    :One Line per depth step
PROD.  Schlumberger   :LAS Producer
PROG.  DLIS to ASCII 13C0-300                          :LAS Program name and version
CREA.        2011/08/08 09:00                          :LAS Creation date {YYYY/MM/DD hh:mm}
SOURCE.     DLL_SONIC_MSFL_CNL_033PUP.DLIS             :DLIS File Name
FILE-ID.     DLL_SONIC_MSFL_CNL_033PUP                 :File Identification Number
#--------------------------------------------------
~WELL INFORMATION
#MNEM.UNIT      DATA             DESCRIPTION
#---- ------ --------------   -----------------------------
STRT .F         8621.5       :START DEPTH     
STOP .F         6875.5       :STOP DEPTH     
STEP .F           -0.5       :STEP     
NULL .          -999.25      :NULL VALUE
COMP .        PT Pertamina EP Region Jawa              :COMPANY
WELL .        MLD-05/ MLD-B1                           :WELL
FLD  .        Melandong                                :FIELD
LOC  .                                                 :LOCATION
CNTY .        MSH-2000                                 :COUNTY
STAT .        West Java                                :STATE
CTRY .        Indonesia                                :COUNTRY
API  .                                                 :API NUMBER
UWI  .                                                 :UNIQUE WELL ID
DATE .        07-Aug-2011                              :LOG DATE {DD-MMM-YYYY}
SRVC .        Schlumberger                             :SERVICE COMPANY
LATI .DEG                                              :LATITUDE
LONG .DEG                                              :LONGITUDE
GDAT .                                                 :GeoDetic Datum
#-----------------------------------------------------------------------------
~PARAMETER INFORMATION
#MNEM.UNIT    VALUE                      DESCRIPTION
#---- -----   --------------------       ------------------------
RUN  .          1                        :RUN NUMBER
PDAT .        MSL                        :Permanent Datum
EPD  .M           0.000000               :Elevation of Permanent Datum above Mean Sea Level
EPD  .M           0.000000               :Elevation of tool zero above Mean Sea Level
LMF  .          DF                       :Logging Measured From (Name of Logging Elevation Reference)
APD  .M          10.040000               :Elevation of Depth Reference (LMF) above Permanent Datum
#-----------------------------------------------------------------------------
~CURVE INFORMATION
#MNEM.UNIT   API CODE                                  DESCRIPTION
#---- -----  --------                                  -----------------------
DEPT .F                                                :DEPTH (BOREHOLE) {F10.1}
LLD  .OHMM                                             :DEEP RESISTIVITY {F13.4}
LLS  .OHMM                                             :SHALLOW RESISTIVITY {F13.4}
DT   .US/F                                             :Delta-T {F13.4}
SP   .MV                                               :SP Shifted {F13.4}
MSFL .OHMM                                             :MSFL RESISTIVITY {F13.4}
GR   .GAPI                                             :Gamma Ray {F13.4}
NPHI .V/V                                              :Thermal Neutron Porosity (Ratio Method) {F13.4}
DRHO .G/C3                                             :Bulk Density Correction {F13.4}
PEF  .                                                 :Photoelectric Factor {F13.4}
RHOB .G/C3                                             :Bulk Density {F13.4}
CALI .IN                                               :Caliper {F13.4}
#-----------------------------------------------------------------------------
# 
#     DEPT        LLD          LLS          DT           SP           MSFL         GR           NPHI         DRHO         PEF          RHOB         CALI
#
~A  
# ...
    8153.5       5.5955       4.4435      84.9000    -539.5625       4.6733     117.5460       0.2656       0.0645       3.8989       2.5918      13.0259
    8153.0       5.6991       4.5754      84.4000    -539.3125       4.3868     112.6038       0.2558       0.0621       4.0915       2.5652      13.0872
    8152.5       5.8219       4.5813      84.6000    -539.1875       5.5592     113.9395       0.2494       0.0642       3.8975       2.5785      13.2407
    8152.0       5.9729       4.5510      77.7000    -539.2500       5.0951     112.6038       0.2145       0.0635       3.5900       2.6049      13.3298
    8151.5       6.1274       4.7685      77.8000    -538.9375       4.7051     107.5279       0.1922       0.0442       3.2846       2.6215      13.6513
    8151.0       6.6959       5.2822      79.4000    -538.7500       4.1624     107.5279       0.1539       0.0369       3.0922       2.6103      13.7849
    8150.5       8.0198       6.0706      81.0000    -538.4375       8.3848     101.9178       0.1483       0.0334       3.1017       2.6113      13.8208
    8150.0       9.1396       6.7702      85.4000    -538.1250       9.6527     101.9178       0.1471       0.0326       2.9377       2.5985      13.7878
    8149.5       9.0737       6.6059      79.5000    -537.9375       8.7097     101.1163       0.1631       0.0355       3.0195       2.5974      13.2778
    8149.0       9.0466       6.4799      73.1000    -537.6875       8.3841     105.7914       0.1729       0.0393       3.0631       2.5650      12.7361
    8148.5       9.5236       6.9452      70.0000    -537.3750       6.7590     106.0586       0.1863       0.0193       3.5236       2.5080      12.4987
    8148.0      11.3383       8.5068      63.9000    -537.3125       6.3553      91.2208       0.2114       0.0117       4.0166       2.4979      12.4294
    8147.5      15.5987      11.2505      55.9000    -536.6250       6.9283      75.0582       0.2050       0.0116       4.4987       2.5479      12.4506
    8147.0      22.4295      15.6596      54.6000    -536.1875      11.4726      59.5721       0.1828       0.0117       5.1525       2.6278      12.5684
    8146.5      39.3093      25.7487      54.4000    -535.6250      45.2424      55.3176       0.1010       0.0008       5.8901       2.6614      12.8589
    8146.0      70.9457      41.6525      55.5000    -535.1250      40.3634      52.1118       0.0406       0.0063       6.9154       2.6862      13.2108
    8145.5      56.3025      38.7885      58.9000    -534.5000      44.6590      53.9635       0.0060       0.0091       6.5504       2.7060      13.2964
    8145.0      47.9387      35.6464      59.4000    -534.1250      33.9514      55.8247       0.0030       0.0112       5.8218       2.7230      13.2951
    8144.5      40.7384      30.6670      60.6000    -533.6875      41.9889      57.9645       0.0041       0.0175       5.2197       2.7105      13.2580
    8144.0      32.2456      25.0694      61.9000    -533.5000      55.9270      61.1767       0.0098       0.0210       5.3891       2.6914      13.0973
    8143.5      24.7428      20.0927      63.3000    -533.0000      47.9722      61.1767       0.0219       0.0205       5.5386       2.6620      12.7634
    8143.0      18.3267      16.0856      63.9000    -532.6875      15.1578      59.8384       0.0388       0.0324       5.6957       2.6604      12.5483
    8142.5      15.6819      14.1163      62.7000    -532.2500       9.8497      54.3735       0.0501       0.0414       5.4398       2.6596      12.5063
    8142.0      14.7246      13.1495      61.4000    -531.8125       6.8709      52.6370       0.0518       0.0456       5.1950       2.6728      12.5088
    8141.5      15.6574      13.8339      60.0000    -531.5000       7.5889      53.1713       0.0487       0.0516       5.0868       2.6861      12.5215
    8141.0      17.6963      16.0706      58.6000    -531.5000       7.9733      56.6461       0.0368       0.0471       5.2607       2.6971      12.8139
    8140.5      20.9822      19.0632      58.3000    -531.1875      11.1578      56.3789       0.0228       0.0397       5.5071       2.7094      13.0874
    8140.0      25.7249      23.0820      57.3000    -531.0625      19.8239      55.0432       0.0123       0.0348       5.4126       2.7210      13.2280
    8139.5      32.7728      28.0956      57.4000    -531.1250      20.7843      53.1629       0.0094       0.0217       5.1841       2.7157      13.2405
    8139.0      38.7051      31.6141      59.3000    -531.0000      20.3993      52.4950       0.0076       0.0138       4.8937       2.7006      13.1342
    8138.5      41.2600      32.5135      61.3000    -531.0625      23.8790      51.4264       0.0095       0.0108       5.0480       2.6956      12.8821
    8138.0      36.9051      28.9935      60.3000    -530.8125      31.5788      50.4914       0.0149       0.0097       5.1375       2.6827      12.6669
    8137.5      28.4369      23.1099      60.7000    -530.7500      25.6065      55.4227       0.0222       0.0095       5.5350       2.6844      12.4941
    8137.0      22.9387      20.0731      61.8000    -530.4375      20.6543      53.9118       0.0305       0.0133       5.7071       2.6869      12.3950
    8136.5      18.9954      16.9479      62.2000    -530.4375      25.0626      56.4396       0.0304       0.0170       5.4890       2.6904      12.3876
    8136.0      14.5121      12.7644      64.2000    -530.2500      14.4422      55.2484       0.0263       0.0135       5.4705       2.6682      12.4564
    8135.5      12.8557      11.5335      65.4000    -530.0625      16.8539      62.5030       0.0288       0.0134       5.2479       2.6671      12.7586
    8135.0      12.8181      11.8452      66.1000    -529.9375      14.3259      65.4634       0.0303       0.0125       5.3417       2.6639      13.0734
    8134.5      13.1051      12.0084      64.7000    -529.8750       8.2619      63.8605       0.0328       0.0138       5.4608       2.6755      13.1837
    8134.0      13.2342      12.0769      64.8000    -529.5000      14.0332      60.9011       0.0309       0.0191       5.8863       2.6752      13.1863
    8133.5      14.0606      12.9926      63.8000    -529.0625      13.7016      58.3515       0.0411       0.0355       6.2407       2.6799      13.1884
    8133.0      14.8145      13.6360      63.8000    -528.5000       8.7587      55.2873       0.0624       0.0354       6.1995       2.6541      13.1762
    8132.5      13.2230      11.8803      64.6000    -528.1250       6.9225      55.5751       0.0714       0.0347       6.4548       2.6293      13.1464
    8132.0      12.2481      11.0588      62.6000    -527.8750       4.3868      53.8646       0.0652       0.0357       6.4841       2.6295      12.9760
    8131.5      12.6697      11.1891      62.4000    -527.0625       3.1836      55.0588       0.0488       0.0439       6.1216       2.6675      12.9241
    8131.0      12.8807      11.3972      62.1000    -526.5000       8.8032      51.8530       0.0407       0.0581       5.3860       2.7036      12.7782
    8130.5      12.9230      11.5411      62.2000    -526.1250      14.0205      50.2328       0.0294       0.0783       5.2207       2.7361      12.5939
    8130.0      13.9919      12.3282      61.8000    -525.9375      10.2540      55.4310       0.0250       0.0808       5.4201       2.7139      12.5828
    8129.5      14.6163      12.7733      60.9000    -526.0000      11.5390      55.1555       0.0203       0.0859       5.7129       2.7112      13.0020
    8129.0      16.4035      14.3728      59.2000    -525.9375      16.5899      56.0819       0.0184       0.0953       5.3200       2.7243      13.2884
    8128.5      18.5406      16.4482      58.6000    -525.0000      11.2241      47.9380       0.0145       0.0972       5.2215       2.7429      13.2825
    8128.0      21.8459      18.4828      59.0000    -523.8750      16.1464      45.6829       0.0128       0.0902       5.2598       2.7447      13.2301
