~VERSION INFORMATION
VERS.           2.0   :CWLS Log ASCII Standard - VERSION 2.0
WRAP.           NO    :One Line per depth step
PROD.  Schlumberger   :LAS Producer
PROG.  DLIS to ASCII 13C0-300                          :LAS Program name and version
CREA.        2011/08/08 09:00                          :LAS Creation date {YYYY/MM/DD hh:mm}
SOURCE.     DLL_SONIC_MSFL_CNL_033PUP.DLIS             :DLIS File Name
FILE-ID.     DLL_SONIC_MSFL_CNL_033PUP                 :File Identification Number
#--------------------------------------------------
~WELL INFORMATION
#MNEM.UNIT      DATA             DESCRIPTION
#---- ------ --------------   -----------------------------
STRT .F         8621.5       :START DEPTH     
STOP .F         6875.5       :STOP DEPTH     
STEP .F           -0.5       :STEP     
NULL .          -999.25      :NULL VALUE
COMP .        PT Pertamina EP Region Jawa              :COMPANY
WELL .        MLD-05/ MLD-B1                           :WELL
FLD  .        Melandong                                :FIELD
LOC  .                                                 :LOCATION
CNTY .        MSH-2000                                 :COUNTY
STAT .        West Java                                :STATE
CTRY .        Indonesia                                :COUNTRY
API  .                                                 :API NUMBER
UWI  .                                                 :UNIQUE WELL ID
DATE .        07-Aug-2011                              :LOG DATE {DD-MMM-YYYY}
SRVC .        Schlumberger                             :SERVICE COMPANY
LATI .DEG                                              :LATITUDE
LONG .DEG                                              :LONGITUDE
GDAT .                                                 :GeoDetic Datum
#-----------------------------------------------------------------------------
~PARAMETER INFORMATION
#MNEM.UNIT    VALUE                      DESCRIPTION
#---- -----   --------------------       ------------------------
RUN  .          1                        :RUN NUMBER
PDAT .        MSL                        :Permanent Datum
EPD  .M           0.000000               :Elevation of Permanent Datum above Mean Sea Level
EPD  .M           0.000000               :Elevation of tool zero above Mean Sea Level
LMF  .          DF                       :Logging Measured From (Name of Logging Elevation Reference)
APD  .M          10.040000               :Elevation of Depth Reference (LMF) above Permanent Datum
#-----------------------------------------------------------------------------
~CURVE INFORMATION
#MNEM.UNIT   API CODE                                  DESCRIPTION
#---- -----  --------                                  -----------------------
DEPT .F                                                :DEPTH (BOREHOLE) {F10.1}
LLD  .OHMM                                             :DEEP RESISTIVITY {F13.4}
LLS  .OHMM                                             :SHALLOW RESISTIVITY {F13.4}
DT   .US/F                                             :Delta-T {F13.4}
SP   .MV                                               :SP Shifted {F13.4}
MSFL .OHMM                                             :MSFL RESISTIVITY {F13.4}
GR   .GAPI                                             :Gamma Ray {F13.4}
NPHI .V/V                                              :Thermal Neutron Porosity (Ratio Method) {F13.4}
DRHO .G/C3                                             :Bulk Density Correction {F13.4}
PEF  .                                                 :Photoelectric Factor {F13.4}
RHOB .G/C3                                             :Bulk Density {F13.4}
CALI .IN                                               :Caliper {F13.4}
#-----------------------------------------------------------------------------
# 
#     DEPT        LLD          LLS          DT           SP           MSFL         GR           NPHI         DRHO         PEF          RHOB         CALI
#
~A  
# ...
    7815.5       5.8387       3.4386      61.2000    -473.2500       1.9473      60.6642       0.1012       0.0578       6.5893       2.5242      12.9612
    7815.0       5.9458       3.4391      58.0000    -473.0000       2.1027      60.2635       0.0977       0.0433       6.5919       2.5303      12.9463
    7814.5       5.8435       3.4954      59.4000    -473.0625       3.4532      64.2972       0.0922       0.0406       7.2342       2.5537      12.8377
    7814.0       7.1594       4.2021      60.8000    -472.1875       4.2827      63.3617       0.0957       0.0453       7.4049       2.5796      12.6521
    7813.5       9.2962       5.0094      62.5000    -472.3125       4.1960      62.5602       0.1013       0.0474       7.2764       2.5900      12.2371
    7813.0      10.2190       5.0553      63.6000    -472.1250       4.0115      57.1715       0.1059       0.0596       7.2820       2.5962      12.0910
    7812.5      10.1297       5.0412      64.6000    -472.1250       4.0865      56.2258       0.1034       0.0739       7.4387       2.5906      12.0786
    7812.0       9.2967       4.6418      65.4000    -472.1875       3.5109      60.2331       0.1011       0.0739       7.5925       2.5545      12.0902
    7811.5       8.0304       4.0902      66.1000    -472.3125       2.5350      62.9139       0.0920       0.0648       7.2439       2.5239      12.1672
    7811.0       7.4512       3.8063      66.3000    -472.3125       2.0687      63.8015       0.0865       0.0662       6.5601       2.5148      12.2362
    7810.5       7.2968       3.6481      67.0000    -472.4375       2.4296      65.5502       0.0745       0.0436       6.1367       2.4987      12.3277
    7810.0       7.2562       3.6672      67.7000    -472.4375       1.8503      67.1531       0.0869       0.0264       6.7185       2.4875      12.5975
    7809.5       7.1924       3.7400      67.8000    -472.6875       2.2607      71.2205       0.0981       0.0297       7.1286       2.4994      12.7337
    7809.0       7.0144       3.7443      67.9000    -472.5000       2.0803      69.3495       0.1150       0.0664       7.4367       2.5381      12.7582
    7808.5       6.5233       3.4524      66.4000    -472.6875       1.5828      66.0101       0.1394       0.0806       7.2682       2.5262      12.7683
    7808.0       6.3500       3.2715      68.8000    -472.8125       1.5751      61.0551       0.1715       0.0677       7.8822       2.4395      12.7714
    7807.5       6.1602       3.1992      69.5000    -472.8750       0.8215      56.6449       0.1745       0.0754       8.7707       2.4144      12.6990
    7807.0       5.8816       3.1517      69.7000    -472.8125       1.2513      54.7019       0.1591       0.0783       8.6914       2.4120      12.6256
    7806.5       6.1488       3.2534      68.9000    -472.8750       1.4809      54.2602       0.1392       0.0729       9.0730       2.4439      12.6173
    7806.0       6.4315       3.3977      66.4000    -472.9375       0.6658      55.9066       0.1512       0.0992       8.9540       2.4667      12.6204
    7805.5       6.6733       3.4874      64.8000    -473.0625       0.9942      55.9884       0.1602       0.1183       9.9672       2.4342      12.6346
    7805.0       6.8682       3.5348      64.4000    -473.1250       1.2893      55.8958       0.1562       0.0785      11.3123       2.2399      12.8032
    7804.5       7.1162       3.5299      63.8000    -473.2500       1.3453      55.7097       0.1282       0.0553      12.3596       2.1687      12.6001
    7804.0       7.0117       3.5730      61.0000    -473.2500       1.8080      57.4373       0.1057       0.0482      10.5129       2.2064      12.3107
    7803.5       7.3477       3.7271      58.2000    -473.1875       1.8109      53.4301       0.1005       0.0596       9.4398       2.3913      12.0344
    7803.0       8.3502       4.0966      60.1000    -473.1250       2.1451      54.3651       0.1140       0.0715       7.9661       2.5312      12.0506
    7802.5       9.4980       4.4592      60.2000    -473.4375       2.5979      55.0430       0.1157       0.0812       7.6386       2.5500      12.0481
    7802.0      10.8756       4.9199      61.1000    -473.5000       2.7116      60.1189       0.1104       0.1154       6.9304       2.5854      12.0431
    7801.5      13.3502       5.7808      61.8000    -473.7500       2.5211      58.1152       0.0951       0.1456       6.8853       2.6236      12.0411
    7801.0      15.2640       6.3821      62.7000    -473.5625       2.6240      54.2315       0.0807       0.1612       6.7057       2.6295      12.0481
    7800.5      16.4509       7.1132      64.9000    -473.5625       1.5066      50.2243       0.0703       0.1394       6.5777       2.5853      12.0530
    7800.0      17.0337       7.3475      65.3000    -473.6875       1.4870      52.3615       0.0683       0.1205       6.4850       2.5464      12.0582
    7799.5      14.5062       6.2453      67.0000    -473.6250       2.0610      55.0330       0.0772       0.0883       6.6244       2.5355      12.1563
    7799.0      10.9887       4.9023      69.4000    -473.9375       3.2935      61.2878       0.0918       0.0651       7.2807       2.5382      12.6203
    7798.5       8.3002       4.0437      67.9000    -473.8125       2.3747      63.9476       0.1226       0.0265       7.3903       2.5085      12.7608
    7798.0       6.5711       3.3621      68.9000    -474.1250       2.1824      67.8099       0.1560       0.0296       8.2070       2.5010      12.7821
    7797.5       5.8508       3.0235      70.5000    -474.3125       1.9432      70.7586       0.1897       0.0413       7.3561       2.4945      12.9142
    7797.0       5.6756       2.9010      70.3000    -474.5000       1.9632      75.5507       0.2025       0.0562       7.6787       2.4937      12.9517
    7796.5       5.3939       2.8958      69.0000    -474.5625       2.0114      80.1565       0.1978       0.0532       7.7018       2.4664      12.9623
    7796.0       5.4531       2.9404      68.1000    -474.9375       2.0366      79.7079       0.1839       0.0588       8.6005       2.4541      12.9623
    7795.5       5.7471       3.0253      69.4000    -474.6250       2.2407      77.5859       0.1845       0.0915       8.5726       2.4843      12.9538
    7795.0       6.1639       3.1768      69.4000    -474.8125       1.4739      79.5220       0.1673       0.1261       8.9768       2.5094      12.9637
    7794.5       6.9177       3.5577      70.2000    -475.0625       1.3635      79.0487       0.1552       0.1344       9.6394       2.5014      12.9587
    7794.0       7.5462       3.8813      69.8000    -475.3125       1.2879      78.7817       0.1237       0.1178       9.0423       2.4460      12.9623
    7793.5       7.8054       3.9707      69.8000    -474.8750       1.8850      77.3131       0.1182       0.1032       8.6100       2.4369      12.9612
    7793.0       8.2613       4.0317      69.6000    -474.8750       2.0367      79.8371       0.1157       0.0712       7.6795       2.4496      12.9755
    7792.5       7.9246       3.8593      66.3000    -474.8125       1.9709      84.7768       0.1241       0.0206       7.8191       2.4644      13.0009
    7792.0       7.1409       3.5551      67.3000    -475.1250       2.4046      80.3711       0.1332       0.0068       7.2004       2.4865      12.9958
    7791.5       6.7356       3.3671      65.6000    -475.0000       1.8992      77.3004       0.1419       0.0101       7.2459       2.4908      12.9491
    7791.0       6.6843       3.2688      65.6000    -475.1875       2.4577      67.4363       0.1539       0.0284       6.7104       2.5009      12.7662
    7790.5       7.0524       3.4002      66.1000    -475.3750       1.7706      65.0227       0.1516       0.0641       6.8377       2.5293      12.3995
    7790.0       7.6118       3.7049      65.4000    -475.3750       1.5419      57.1458       0.1362       0.1109       6.5121       2.5684      12.3290
